$GPGGA,103505.382,5142.020,N,00452.027,E,1,12,1.0,0.0,M,0.0,M,,*63
$GPGSA,A,3,01,02,03,04,05,06,07,08,09,10,11,12,1.0,1.0,1.0*30
$GPRMC,103505.382,A,5142.020,N,00452.027,E,007.8,009.4,120221,000.0,W*77
$GPGGA,103506.382,5142.022,N,00452.027,E,1,12,1.0,0.0,M,0.0,M,,*62
$GPGSA,A,3,01,02,03,04,05,06,07,08,09,10,11,12,1.0,1.0,1.0*30
$GPRMC,103506.382,A,5142.022,N,00452.027,E,007.8,009.4,120221,000.0,W*76
$GPGGA,103507.382,5142.024,N,00452.028,E,1,12,1.0,0.0,M,0.0,M,,*6A
$GPGSA,A,3,01,02,03,04,05,06,07,08,09,10,11,12,1.0,1.0,1.0*30
$GPRMC,103507.382,A,5142.024,N,00452.028,E,007.8,009.4,120221,000.0,W*7E
$GPGGA,103508.382,5142.026,N,00452.028,E,1,12,1.0,0.0,M,0.0,M,,*67
$GPGSA,A,3,01,02,03,04,05,06,07,08,09,10,11,12,1.0,1.0,1.0*30
$GPRMC,103508.382,A,5142.026,N,00452.028,E,007.8,009.4,120221,000.0,W*73
$GPGGA,103509.382,5142.028,N,00452.028,E,1,12,1.0,0.0,M,0.0,M,,*68
$GPGSA,A,3,01,02,03,04,05,06,07,08,09,10,11,12,1.0,1.0,1.0*30
$GPRMC,103509.382,A,5142.028,N,00452.028,E,007.8,009.4,120221,000.0,W*7C
$GPGGA,103510.382,5142.031,N,00452.029,E,1,12,1.0,0.0,M,0.0,M,,*69
$GPGSA,A,3,01,02,03,04,05,06,07,08,09,10,11,12,1.0,1.0,1.0*30
$GPRMC,103510.382,A,5142.031,N,00452.029,E,007.8,009.4,120221,000.0,W*7D
$GPGGA,103511.382,5142.033,N,00452.029,E,1,12,1.0,0.0,M,0.0,M,,*6A
$GPGSA,A,3,01,02,03,04,05,06,07,08,09,10,11,12,1.0,1.0,1.0*30
$GPRMC,103511.382,A,5142.033,N,00452.029,E,007.8,009.4,120221,000.0,W*7E
$GPGGA,103512.382,5142.035,N,00452.029,E,1,12,1.0,0.0,M,0.0,M,,*6F
$GPGSA,A,3,01,02,03,04,05,06,07,08,09,10,11,12,1.0,1.0,1.0*30
$GPRMC,103512.382,A,5142.035,N,00452.029,E,007.8,009.4,120221,000.0,W*7B
$GPGGA,103513.382,5142.037,N,00452.030,E,1,12,1.0,0.0,M,0.0,M,,*64
$GPGSA,A,3,01,02,03,04,05,06,07,08,09,10,11,12,1.0,1.0,1.0*30
$GPRMC,103513.382,A,5142.037,N,00452.030,E,007.8,009.4,120221,000.0,W*70
$GPGGA,103514.382,5142.039,N,00452.030,E,1,12,1.0,0.0,M,0.0,M,,*6D
$GPGSA,A,3,01,02,03,04,05,06,07,08,09,10,11,12,1.0,1.0,1.0*30
$GPRMC,103514.382,A,5142.039,N,00452.030,E,007.8,009.4,120221,000.0,W*79
$GPGGA,103515.382,5142.041,N,00452.030,E,1,12,1.0,0.0,M,0.0,M,,*63
$GPGSA,A,3,01,02,03,04,05,06,07,08,09,10,11,12,1.0,1.0,1.0*30
$GPRMC,103515.382,A,5142.041,N,00452.030,E,007.8,009.4,120221,000.0,W*77
$GPGGA,103516.382,5142.044,N,00452.031,E,1,12,1.0,0.0,M,0.0,M,,*64
$GPGSA,A,3,01,02,03,04,05,06,07,08,09,10,11,12,1.0,1.0,1.0*30
$GPRMC,103516.382,A,5142.044,N,00452.031,E,007.8,009.4,120221,000.0,W*70
$GPGGA,103517.382,5142.046,N,00452.031,E,1,12,1.0,0.0,M,0.0,M,,*67
$GPGSA,A,3,01,02,03,04,05,06,07,08,09,10,11,12,1.0,1.0,1.0*30
$GPRMC,103517.382,A,5142.046,N,00452.031,E,007.8,009.4,120221,000.0,W*73
$GPGGA,103518.382,5142.048,N,00452.032,E,1,12,1.0,0.0,M,0.0,M,,*65
$GPGSA,A,3,01,02,03,04,05,06,07,08,09,10,11,12,1.0,1.0,1.0*30
$GPRMC,103518.382,A,5142.048,N,00452.032,E,007.8,009.4,120221,000.0,W*71
$GPGGA,103519.382,5142.050,N,00452.032,E,1,12,1.0,0.0,M,0.0,M,,*6D
$GPGSA,A,3,01,02,03,04,05,06,07,08,09,10,11,12,1.0,1.0,1.0*30
$GPRMC,103519.382,A,5142.050,N,00452.032,E,007.8,009.4,120221,000.0,W*79
$GPGGA,103520.382,5142.052,N,00452.032,E,1,12,1.0,0.0,M,0.0,M,,*65
$GPGSA,A,3,01,02,03,04,05,06,07,08,09,10,11,12,1.0,1.0,1.0*30
$GPRMC,103520.382,A,5142.052,N,00452.032,E,007.8,009.4,120221,000.0,W*71
$GPGGA,103521.382,5142.054,N,00452.033,E,1,12,1.0,0.0,M,0.0,M,,*63
$GPGSA,A,3,01,02,03,04,05,06,07,08,09,10,11,12,1.0,1.0,1.0*30
$GPRMC,103521.382,A,5142.054,N,00452.033,E,007.8,009.4,120221,000.0,W*77
$GPGGA,103522.382,5142.056,N,00452.033,E,1,12,1.0,0.0,M,0.0,M,,*62
$GPGSA,A,3,01,02,03,04,05,06,07,08,09,10,11,12,1.0,1.0,1.0*30
$GPRMC,103522.382,A,5142.056,N,00452.033,E,007.8,009.4,120221,000.0,W*76
$GPGGA,103523.382,5142.059,N,00452.033,E,1,12,1.0,0.0,M,0.0,M,,*6C
$GPGSA,A,3,01,02,03,04,05,06,07,08,09,10,11,12,1.0,1.0,1.0*30
$GPRMC,103523.382,A,5142.059,N,00452.033,E,007.8,009.4,120221,000.0,W*78
$GPGGA,103524.382,5142.061,N,00452.034,E,1,12,1.0,0.0,M,0.0,M,,*67
$GPGSA,A,3,01,02,03,04,05,06,07,08,09,10,11,12,1.0,1.0,1.0*30
$GPRMC,103524.382,A,5142.061,N,00452.034,E,007.8,009.4,120221,000.0,W*73
$GPGGA,103525.382,5142.063,N,00452.034,E,1,12,1.0,0.0,M,0.0,M,,*64
$GPGSA,A,3,01,02,03,04,05,06,07,08,09,10,11,12,1.0,1.0,1.0*30
$GPRMC,103525.382,A,5142.063,N,00452.034,E,007.8,009.4,120221,000.0,W*70
$GPGGA,103526.382,5142.065,N,00452.034,E,1,12,1.0,0.0,M,0.0,M,,*61
$GPGSA,A,3,01,02,03,04,05,06,07,08,09,10,11,12,1.0,1.0,1.0*30
$GPRMC,103526.382,A,5142.065,N,00452.034,E,007.8,009.4,120221,000.0,W*75
$GPGGA,103527.382,5142.067,N,00452.035,E,1,12,1.0,0.0,M,0.0,M,,*63
$GPGSA,A,3,01,02,03,04,05,06,07,08,09,10,11,12,1.0,1.0,1.0*30
$GPRMC,103527.382,A,5142.067,N,00452.035,E,007.8,009.4,120221,000.0,W*77
$GPGGA,103528.382,5142.069,N,00452.035,E,1,12,1.0,0.0,M,0.0,M,,*62
$GPGSA,A,3,01,02,03,04,05,06,07,08,09,10,11,12,1.0,1.0,1.0*30
$GPRMC,103528.382,A,5142.069,N,00452.035,E,007.8,009.4,120221,000.0,W*76
$GPGGA,103529.382,5142.071,N,00452.035,E,1,12,1.0,0.0,M,0.0,M,,*6A
$GPGSA,A,3,01,02,03,04,05,06,07,08,09,10,11,12,1.0,1.0,1.0*30
$GPRMC,103529.382,A,5142.071,N,00452.035,E,007.8,009.4,120221,000.0,W*7E
$GPGGA,103530.382,5142.074,N,00452.036,E,1,12,1.0,0.0,M,0.0,M,,*64
$GPGSA,A,3,01,02,03,04,05,06,07,08,09,10,11,12,1.0,1.0,1.0*30
$GPRMC,103530.382,A,5142.074,N,00452.036,E,007.8,009.4,120221,000.0,W*70
$GPGGA,103531.382,5142.076,N,00452.036,E,1,12,1.0,0.0,M,0.0,M,,*67
$GPGSA,A,3,01,02,03,04,05,06,07,08,09,10,11,12,1.0,1.0,1.0*30
$GPRMC,103531.382,A,5142.076,N,00452.036,E,007.8,009.4,120221,000.0,W*73
$GPGGA,103532.382,5142.078,N,00452.036,E,1,12,1.0,0.0,M,0.0,M,,*6A
$GPGSA,A,3,01,02,03,04,05,06,07,08,09,10,11,12,1.0,1.0,1.0*30
$GPRMC,103532.382,A,5142.078,N,00452.036,E,007.8,009.4,120221,000.0,W*7E
$GPGGA,103533.382,5142.080,N,00452.037,E,1,12,1.0,0.0,M,0.0,M,,*6D
$GPGSA,A,3,01,02,03,04,05,06,07,08,09,10,11,12,1.0,1.0,1.0*30
$GPRMC,103533.382,A,5142.080,N,00452.037,E,007.8,009.4,120221,000.0,W*79
$GPGGA,103534.382,5142.082,N,00452.037,E,1,12,1.0,0.0,M,0.0,M,,*68
$GPGSA,A,3,01,02,03,04,05,06,07,08,09,10,11,12,1.0,1.0,1.0*30
$GPRMC,103534.382,A,5142.082,N,00452.037,E,007.8,009.4,120221,000.0,W*7C
$GPGGA,103535.382,5142.084,N,00452.038,E,1,12,1.0,0.0,M,0.0,M,,*60
$GPGSA,A,3,01,02,03,04,05,06,07,08,09,10,11,12,1.0,1.0,1.0*30
$GPRMC,103535.382,A,5142.084,N,00452.038,E,007.8,009.4,120221,000.0,W*74
$GPGGA,103536.382,5142.086,N,00452.038,E,1,12,1.0,0.0,M,0.0,M,,*61
$GPGSA,A,3,01,02,03,04,05,06,07,08,09,10,11,12,1.0,1.0,1.0*30
$GPRMC,103536.382,A,5142.086,N,00452.038,E,007.8,009.4,120221,000.0,W*75
$GPGGA,103537.382,5142.089,N,00452.038,E,1,12,1.0,0.0,M,0.0,M,,*6F
$GPGSA,A,3,01,02,03,04,05,06,07,08,09,10,11,12,1.0,1.0,1.0*30
$GPRMC,103537.382,A,5142.089,N,00452.038,E,007.8,009.4,120221,000.0,W*7B
$GPGGA,103538.382,5142.091,N,00452.039,E,1,12,1.0,0.0,M,0.0,M,,*68
$GPGSA,A,3,01,02,03,04,05,06,07,08,09,10,11,12,1.0,1.0,1.0*30
$GPRMC,103538.382,A,5142.091,N,00452.039,E,007.8,009.4,120221,000.0,W*7C
$GPGGA,103539.382,5142.093,N,00452.039,E,1,12,1.0,0.0,M,0.0,M,,*6B
$GPGSA,A,3,01,02,03,04,05,06,07,08,09,10,11,12,1.0,1.0,1.0*30
$GPRMC,103539.382,A,5142.093,N,00452.039,E,007.8,009.4,120221,000.0,W*7F
$GPGGA,103540.382,5142.095,N,00452.039,E,1,12,1.0,0.0,M,0.0,M,,*63
$GPGSA,A,3,01,02,03,04,05,06,07,08,09,10,11,12,1.0,1.0,1.0*30
$GPRMC,103540.382,A,5142.095,N,00452.039,E,007.8,009.4,120221,000.0,W*77
$GPGGA,103541.382,5142.097,N,00452.040,E,1,12,1.0,0.0,M,0.0,M,,*6E
$GPGSA,A,3,01,02,03,04,05,06,07,08,09,10,11,12,1.0,1.0,1.0*30
$GPRMC,103541.382,A,5142.097,N,00452.040,E,007.8,009.4,120221,000.0,W*7A
$GPGGA,103542.382,5142.099,N,00452.040,E,1,12,1.0,0.0,M,0.0,M,,*63
$GPGSA,A,3,01,02,03,04,05,06,07,08,09,10,11,12,1.0,1.0,1.0*30
$GPRMC,103542.382,A,5142.099,N,00452.040,E,007.8,009.4,120221,000.0,W*77
$GPGGA,103543.382,5142.101,N,00452.040,E,1,12,1.0,0.0,M,0.0,M,,*62
$GPGSA,A,3,01,02,03,04,05,06,07,08,09,10,11,12,1.0,1.0,1.0*30
$GPRMC,103543.382,A,5142.101,N,00452.040,E,007.8,009.4,120221,000.0,W*76
$GPGGA,103544.382,5142.104,N,00452.041,E,1,12,1.0,0.0,M,0.0,M,,*61
$GPGSA,A,3,01,02,03,04,05,06,07,08,09,10,11,12,1.0,1.0,1.0*30
$GPRMC,103544.382,A,5142.104,N,00452.041,E,007.8,009.4,120221,000.0,W*75
$GPGGA,103545.382,5142.106,N,00452.041,E,1,12,1.0,0.0,M,0.0,M,,*62
$GPGSA,A,3,01,02,03,04,05,06,07,08,09,10,11,12,1.0,1.0,1.0*30
$GPRMC,103545.382,A,5142.106,N,00452.041,E,007.8,009.4,120221,000.0,W*76
$GPGGA,103546.382,5142.108,N,00452.041,E,1,12,1.0,0.0,M,0.0,M,,*6F
$GPGSA,A,3,01,02,03,04,05,06,07,08,09,10,11,12,1.0,1.0,1.0*30
$GPRMC,103546.382,A,5142.108,N,00452.041,E,007.8,009.4,120221,000.0,W*7B
$GPGGA,103547.382,5142.110,N,00452.042,E,1,12,1.0,0.0,M,0.0,M,,*64
$GPGSA,A,3,01,02,03,04,05,06,07,08,09,10,11,12,1.0,1.0,1.0*30
$GPRMC,103547.382,A,5142.110,N,00452.042,E,007.8,009.4,120221,000.0,W*70
$GPGGA,103548.382,5142.112,N,00452.042,E,1,12,1.0,0.0,M,0.0,M,,*69
$GPGSA,A,3,01,02,03,04,05,06,07,08,09,10,11,12,1.0,1.0,1.0*30
$GPRMC,103548.382,A,5142.112,N,00452.042,E,007.8,009.4,120221,000.0,W*7D
$GPGGA,103549.382,5142.114,N,00452.043,E,1,12,1.0,0.0,M,0.0,M,,*6F
$GPGSA,A,3,01,02,03,04,05,06,07,08,09,10,11,12,1.0,1.0,1.0*30
$GPRMC,103549.382,A,5142.114,N,00452.043,E,007.8,009.4,120221,000.0,W*7B
$GPGGA,103550.382,5142.117,N,00452.043,E,1,12,1.0,0.0,M,0.0,M,,*64
$GPGSA,A,3,01,02,03,04,05,06,07,08,09,10,11,12,1.0,1.0,1.0*30
$GPRMC,103550.382,A,5142.117,N,00452.043,E,007.8,009.4,120221,000.0,W*70
$GPGGA,103551.382,5142.119,N,00452.043,E,1,12,1.0,0.0,M,0.0,M,,*6B
$GPGSA,A,3,01,02,03,04,05,06,07,08,09,10,11,12,1.0,1.0,1.0*30
$GPRMC,103551.382,A,5142.119,N,00452.043,E,007.8,009.4,120221,000.0,W*7F
$GPGGA,103552.382,5142.121,N,00452.044,E,1,12,1.0,0.0,M,0.0,M,,*64
$GPGSA,A,3,01,02,03,04,05,06,07,08,09,10,11,12,1.0,1.0,1.0*30
$GPRMC,103552.382,A,5142.121,N,00452.044,E,007.8,009.4,120221,000.0,W*70
$GPGGA,103553.382,5142.123,N,00452.044,E,1,12,1.0,0.0,M,0.0,M,,*67
$GPGSA,A,3,01,02,03,04,05,06,07,08,09,10,11,12,1.0,1.0,1.0*30
$GPRMC,103553.382,A,5142.123,N,00452.044,E,007.8,009.4,120221,000.0,W*73
$GPGGA,103554.382,5142.125,N,00452.044,E,1,12,1.0,0.0,M,0.0,M,,*66
$GPGSA,A,3,01,02,03,04,05,06,07,08,09,10,11,12,1.0,1.0,1.0*30
$GPRMC,103554.382,A,5142.125,N,00452.044,E,007.8,009.4,120221,000.0,W*72
$GPGGA,103555.382,5142.127,N,00452.045,E,1,12,1.0,0.0,M,0.0,M,,*64
$GPGSA,A,3,01,02,03,04,05,06,07,08,09,10,11,12,1.0,1.0,1.0*30
$GPRMC,103555.382,A,5142.127,N,00452.045,E,007.8,009.4,120221,000.0,W*70
$GPGGA,103556.382,5142.129,N,00452.045,E,1,12,1.0,0.0,M,0.0,M,,*69
$GPGSA,A,3,01,02,03,04,05,06,07,08,09,10,11,12,1.0,1.0,1.0*30
$GPRMC,103556.382,A,5142.129,N,00452.045,E,007.8,009.4,120221,000.0,W*7D
$GPGGA,103557.382,5142.132,N,00452.045,E,1,12,1.0,0.0,M,0.0,M,,*62
$GPGSA,A,3,01,02,03,04,05,06,07,08,09,10,11,12,1.0,1.0,1.0*30
$GPRMC,103557.382,A,5142.132,N,00452.045,E,007.8,009.4,120221,000.0,W*76
$GPGGA,103558.382,5142.134,N,00452.046,E,1,12,1.0,0.0,M,0.0,M,,*68
$GPGSA,A,3,01,02,03,04,05,06,07,08,09,10,11,12,1.0,1.0,1.0*30
$GPRMC,103558.382,A,5142.134,N,00452.046,E,007.8,009.4,120221,000.0,W*7C
$GPGGA,103559.382,5142.136,N,00452.046,E,1,12,1.0,0.0,M,0.0,M,,*6B
$GPGSA,A,3,01,02,03,04,05,06,07,08,09,10,11,12,1.0,1.0,1.0*30
$GPRMC,103559.382,A,5142.136,N,00452.046,E,007.8,009.4,120221,000.0,W*7F
$GPGGA,103600.382,5142.138,N,00452.046,E,1,12,1.0,0.0,M,0.0,M,,*6A
$GPGSA,A,3,01,02,03,04,05,06,07,08,09,10,11,12,1.0,1.0,1.0*30
$GPRMC,103600.382,A,5142.138,N,00452.046,E,007.8,009.4,120221,000.0,W*7E
$GPGGA,103601.382,5142.140,N,00452.047,E,1,12,1.0,0.0,M,0.0,M,,*65
$GPGSA,A,3,01,02,03,04,05,06,07,08,09,10,11,12,1.0,1.0,1.0*30
$GPRMC,103601.382,A,5142.140,N,00452.047,E,007.8,009.4,120221,000.0,W*71
$GPGGA,103602.382,5142.142,N,00452.047,E,1,12,1.0,0.0,M,0.0,M,,*64
$GPGSA,A,3,01,02,03,04,05,06,07,08,09,10,11,12,1.0,1.0,1.0*30
$GPRMC,103602.382,A,5142.142,N,00452.047,E,007.8,327.6,120221,000.0,W*7D
$GPGGA,103603.382,5142.144,N,00452.046,E,1,12,1.0,0.0,M,0.0,M,,*62
$GPGSA,A,3,01,02,03,04,05,06,07,08,09,10,11,12,1.0,1.0,1.0*30
$GPRMC,103603.382,A,5142.144,N,00452.046,E,007.8,327.6,120221,000.0,W*7B
$GPGGA,103604.382,5142.146,N,00452.045,E,1,12,1.0,0.0,M,0.0,M,,*64
$GPGSA,A,3,01,02,03,04,05,06,07,08,09,10,11,12,1.0,1.0,1.0*30
$GPRMC,103604.382,A,5142.146,N,00452.045,E,007.8,327.6,120221,000.0,W*7D
$GPGGA,103605.382,5142.148,N,00452.043,E,1,12,1.0,0.0,M,0.0,M,,*6D
$GPGSA,A,3,01,02,03,04,05,06,07,08,09,10,11,12,1.0,1.0,1.0*30
$GPRMC,103605.382,A,5142.148,N,00452.043,E,007.8,327.6,120221,000.0,W*74
$GPGGA,103606.382,5142.150,N,00452.042,E,1,12,1.0,0.0,M,0.0,M,,*66
$GPGSA,A,3,01,02,03,04,05,06,07,08,09,10,11,12,1.0,1.0,1.0*30
$GPRMC,103606.382,A,5142.150,N,00452.042,E,007.8,327.6,120221,000.0,W*7F
$GPGGA,103607.382,5142.152,N,00452.041,E,1,12,1.0,0.0,M,0.0,M,,*66
$GPGSA,A,3,01,02,03,04,05,06,07,08,09,10,11,12,1.0,1.0,1.0*30
$GPRMC,103607.382,A,5142.152,N,00452.041,E,007.8,327.6,120221,000.0,W*7F
$GPGGA,103608.382,5142.154,N,00452.039,E,1,12,1.0,0.0,M,0.0,M,,*60
$GPGSA,A,3,01,02,03,04,05,06,07,08,09,10,11,12,1.0,1.0,1.0*30
$GPRMC,103608.382,A,5142.154,N,00452.039,E,007.8,327.6,120221,000.0,W*79
$GPGGA,103609.382,5142.156,N,00452.038,E,1,12,1.0,0.0,M,0.0,M,,*62
$GPGSA,A,3,01,02,03,04,05,06,07,08,09,10,11,12,1.0,1.0,1.0*30
$GPRMC,103609.382,A,5142.156,N,00452.038,E,007.8,327.6,120221,000.0,W*7B
$GPGGA,103610.382,5142.158,N,00452.037,E,1,12,1.0,0.0,M,0.0,M,,*6B
$GPGSA,A,3,01,02,03,04,05,06,07,08,09,10,11,12,1.0,1.0,1.0*30
$GPRMC,103610.382,A,5142.158,N,00452.037,E,007.8,327.6,120221,000.0,W*72
$GPGGA,103611.382,5142.160,N,00452.036,E,1,12,1.0,0.0,M,0.0,M,,*60
$GPGSA,A,3,01,02,03,04,05,06,07,08,09,10,11,12,1.0,1.0,1.0*30
$GPRMC,103611.382,A,5142.160,N,00452.036,E,007.8,327.6,120221,000.0,W*79
$GPGGA,103612.382,5142.162,N,00452.034,E,1,12,1.0,0.0,M,0.0,M,,*63
$GPGSA,A,3,01,02,03,04,05,06,07,08,09,10,11,12,1.0,1.0,1.0*30
$GPRMC,103612.382,A,5142.162,N,00452.034,E,007.8,327.6,120221,000.0,W*7A
$GPGGA,103613.382,5142.164,N,00452.033,E,1,12,1.0,0.0,M,0.0,M,,*63
$GPGSA,A,3,01,02,03,04,05,06,07,08,09,10,11,12,1.0,1.0,1.0*30
$GPRMC,103613.382,A,5142.164,N,00452.033,E,007.8,327.6,120221,000.0,W*7A
$GPGGA,103614.382,5142.166,N,00452.032,E,1,12,1.0,0.0,M,0.0,M,,*67
$GPGSA,A,3,01,02,03,04,05,06,07,08,09,10,11,12,1.0,1.0,1.0*30
$GPRMC,103614.382,A,5142.166,N,00452.032,E,007.8,327.6,120221,000.0,W*7E
$GPGGA,103615.382,5142.168,N,00452.031,E,1,12,1.0,0.0,M,0.0,M,,*6B
$GPGSA,A,3,01,02,03,04,05,06,07,08,09,10,11,12,1.0,1.0,1.0*30
$GPRMC,103615.382,A,5142.168,N,00452.031,E,007.8,327.6,120221,000.0,W*72
$GPGGA,103616.382,5142.170,N,00452.029,E,1,12,1.0,0.0,M,0.0,M,,*68
$GPGSA,A,3,01,02,03,04,05,06,07,08,09,10,11,12,1.0,1.0,1.0*30
$GPRMC,103616.382,A,5142.170,N,00452.029,E,007.8,327.6,120221,000.0,W*71
$GPGGA,103617.382,5142.172,N,00452.028,E,1,12,1.0,0.0,M,0.0,M,,*6A
$GPGSA,A,3,01,02,03,04,05,06,07,08,09,10,11,12,1.0,1.0,1.0*30
$GPRMC,103617.382,A,5142.172,N,00452.028,E,007.8,327.6,120221,000.0,W*73
$GPGGA,103618.382,5142.174,N,00452.027,E,1,12,1.0,0.0,M,0.0,M,,*6C
$GPGSA,A,3,01,02,03,04,05,06,07,08,09,10,11,12,1.0,1.0,1.0*30
$GPRMC,103618.382,A,5142.174,N,00452.027,E,007.8,327.6,120221,000.0,W*75
$GPGGA,103619.382,5142.176,N,00452.025,E,1,12,1.0,0.0,M,0.0,M,,*6D
$GPGSA,A,3,01,02,03,04,05,06,07,08,09,10,11,12,1.0,1.0,1.0*30
$GPRMC,103619.382,A,5142.176,N,00452.025,E,007.8,327.6,120221,000.0,W*74
$GPGGA,103620.382,5142.178,N,00452.024,E,1,12,1.0,0.0,M,0.0,M,,*68
$GPGSA,A,3,01,02,03,04,05,06,07,08,09,10,11,12,1.0,1.0,1.0*30
$GPRMC,103620.382,A,5142.178,N,00452.024,E,007.8,327.6,120221,000.0,W*71
$GPGGA,103621.382,5142.180,N,00452.023,E,1,12,1.0,0.0,M,0.0,M,,*69
$GPGSA,A,3,01,02,03,04,05,06,07,08,09,10,11,12,1.0,1.0,1.0*30
$GPRMC,103621.382,A,5142.180,N,00452.023,E,007.8,327.6,120221,000.0,W*70
$GPGGA,103622.382,5142.182,N,00452.022,E,1,12,1.0,0.0,M,0.0,M,,*69
$GPGSA,A,3,01,02,03,04,05,06,07,08,09,10,11,12,1.0,1.0,1.0*30
$GPRMC,103622.382,A,5142.182,N,00452.022,E,007.8,327.6,120221,000.0,W*70
$GPGGA,103623.382,5142.184,N,00452.020,E,1,12,1.0,0.0,M,0.0,M,,*6C
$GPGSA,A,3,01,02,03,04,05,06,07,08,09,10,11,12,1.0,1.0,1.0*30
$GPRMC,103623.382,A,5142.184,N,00452.020,E,007.8,327.6,120221,000.0,W*75
$GPGGA,103624.382,5142.186,N,00452.019,E,1,12,1.0,0.0,M,0.0,M,,*63
$GPGSA,A,3,01,02,03,04,05,06,07,08,09,10,11,12,1.0,1.0,1.0*30
$GPRMC,103624.382,A,5142.186,N,00452.019,E,007.8,327.6,120221,000.0,W*7A
$GPGGA,103625.382,5142.188,N,00452.018,E,1,12,1.0,0.0,M,0.0,M,,*6D
$GPGSA,A,3,01,02,03,04,05,06,07,08,09,10,11,12,1.0,1.0,1.0*30
$GPRMC,103625.382,A,5142.188,N,00452.018,E,007.8,327.6,120221,000.0,W*74
$GPGGA,103626.382,5142.190,N,00452.016,E,1,12,1.0,0.0,M,0.0,M,,*69
$GPGSA,A,3,01,02,03,04,05,06,07,08,09,10,11,12,1.0,1.0,1.0*30
$GPRMC,103626.382,A,5142.190,N,00452.016,E,007.8,327.6,120221,000.0,W*70
$GPGGA,103627.382,5142.192,N,00452.015,E,1,12,1.0,0.0,M,0.0,M,,*69
$GPGSA,A,3,01,02,03,04,05,06,07,08,09,10,11,12,1.0,1.0,1.0*30
$GPRMC,103627.382,A,5142.192,N,00452.015,E,007.8,327.6,120221,000.0,W*70
$GPGGA,103628.382,5142.194,N,00452.014,E,1,12,1.0,0.0,M,0.0,M,,*61
$GPGSA,A,3,01,02,03,04,05,06,07,08,09,10,11,12,1.0,1.0,1.0*30
$GPRMC,103628.382,A,5142.194,N,00452.014,E,007.8,327.6,120221,000.0,W*78
$GPGGA,103629.382,5142.197,N,00452.013,E,1,12,1.0,0.0,M,0.0,M,,*64
$GPGSA,A,3,01,02,03,04,05,06,07,08,09,10,11,12,1.0,1.0,1.0*30
$GPRMC,103629.382,A,5142.197,N,00452.013,E,007.8,327.6,120221,000.0,W*7D
$GPGGA,103630.382,5142.199,N,00452.011,E,1,12,1.0,0.0,M,0.0,M,,*60
$GPGSA,A,3,01,02,03,04,05,06,07,08,09,10,11,12,1.0,1.0,1.0*30
$GPRMC,103630.382,A,5142.199,N,00452.011,E,007.8,327.6,120221,000.0,W*79
$GPGGA,103631.382,5142.201,N,00452.010,E,1,12,1.0,0.0,M,0.0,M,,*62
$GPGSA,A,3,01,02,03,04,05,06,07,08,09,10,11,12,1.0,1.0,1.0*30
$GPRMC,103631.382,A,5142.201,N,00452.010,E,007.8,327.6,120221,000.0,W*7B
$GPGGA,103632.382,5142.203,N,00452.009,E,1,12,1.0,0.0,M,0.0,M,,*6B
$GPGSA,A,3,01,02,03,04,05,06,07,08,09,10,11,12,1.0,1.0,1.0*30
$GPRMC,103632.382,A,5142.203,N,00452.009,E,007.8,327.6,120221,000.0,W*72
$GPGGA,103633.382,5142.205,N,00452.008,E,1,12,1.0,0.0,M,0.0,M,,*6D
$GPGSA,A,3,01,02,03,04,05,06,07,08,09,10,11,12,1.0,1.0,1.0*30
$GPRMC,103633.382,A,5142.205,N,00452.008,E,007.8,327.6,120221,000.0,W*74
$GPGGA,103634.382,5142.207,N,00452.006,E,1,12,1.0,0.0,M,0.0,M,,*66
$GPGSA,A,3,01,02,03,04,05,06,07,08,09,10,11,12,1.0,1.0,1.0*30
$GPRMC,103634.382,A,5142.207,N,00452.006,E,007.8,327.6,120221,000.0,W*7F
$GPGGA,103635.382,5142.209,N,00452.005,E,1,12,1.0,0.0,M,0.0,M,,*6A
$GPGSA,A,3,01,02,03,04,05,06,07,08,09,10,11,12,1.0,1.0,1.0*30
$GPRMC,103635.382,A,5142.209,N,00452.005,E,007.8,327.6,120221,000.0,W*73
$GPGGA,103636.382,5142.211,N,00452.004,E,1,12,1.0,0.0,M,0.0,M,,*61
$GPGSA,A,3,01,02,03,04,05,06,07,08,09,10,11,12,1.0,1.0,1.0*30
$GPRMC,103636.382,A,5142.211,N,00452.004,E,007.8,327.6,120221,000.0,W*78
$GPGGA,103637.382,5142.213,N,00452.002,E,1,12,1.0,0.0,M,0.0,M,,*64
$GPGSA,A,3,01,02,03,04,05,06,07,08,09,10,11,12,1.0,1.0,1.0*30
$GPRMC,103637.382,A,5142.213,N,00452.002,E,007.8,327.6,120221,000.0,W*7D
$GPGGA,103638.382,5142.215,N,00452.001,E,1,12,1.0,0.0,M,0.0,M,,*6E
$GPGSA,A,3,01,02,03,04,05,06,07,08,09,10,11,12,1.0,1.0,1.0*30
$GPRMC,103638.382,A,5142.215,N,00452.001,E,007.8,318.2,120221,000.0,W*7F
$GPGGA,103639.382,5142.216,N,00451.999,E,1,12,1.0,0.0,M,0.0,M,,*67
$GPGSA,A,3,01,02,03,04,05,06,07,08,09,10,11,12,1.0,1.0,1.0*30
$GPRMC,103639.382,A,5142.216,N,00451.999,E,007.8,318.2,120221,000.0,W*76
$GPGGA,103640.382,5142.218,N,00451.998,E,1,12,1.0,0.0,M,0.0,M,,*66
$GPGSA,A,3,01,02,03,04,05,06,07,08,09,10,11,12,1.0,1.0,1.0*30
$GPRMC,103640.382,A,5142.218,N,00451.998,E,007.8,318.2,120221,000.0,W*77
$GPGGA,103641.382,5142.220,N,00451.996,E,1,12,1.0,0.0,M,0.0,M,,*62
$GPGSA,A,3,01,02,03,04,05,06,07,08,09,10,11,12,1.0,1.0,1.0*30
$GPRMC,103641.382,A,5142.220,N,00451.996,E,007.8,318.2,120221,000.0,W*73
$GPGGA,103642.382,5142.222,N,00451.994,E,1,12,1.0,0.0,M,0.0,M,,*61
$GPGSA,A,3,01,02,03,04,05,06,07,08,09,10,11,12,1.0,1.0,1.0*30
$GPRMC,103642.382,A,5142.222,N,00451.994,E,007.8,318.2,120221,000.0,W*70
$GPGGA,103643.382,5142.224,N,00451.993,E,1,12,1.0,0.0,M,0.0,M,,*61
$GPGSA,A,3,01,02,03,04,05,06,07,08,09,10,11,12,1.0,1.0,1.0*30
$GPRMC,103643.382,A,5142.224,N,00451.993,E,007.8,318.2,120221,000.0,W*70
$GPGGA,103644.382,5142.226,N,00451.991,E,1,12,1.0,0.0,M,0.0,M,,*66
$GPGSA,A,3,01,02,03,04,05,06,07,08,09,10,11,12,1.0,1.0,1.0*30
$GPRMC,103644.382,A,5142.226,N,00451.991,E,007.8,318.2,120221,000.0,W*77
$GPGGA,103645.382,5142.228,N,00451.989,E,1,12,1.0,0.0,M,0.0,M,,*60
$GPGSA,A,3,01,02,03,04,05,06,07,08,09,10,11,12,1.0,1.0,1.0*30
$GPRMC,103645.382,A,5142.228,N,00451.989,E,007.8,318.2,120221,000.0,W*71
$GPGGA,103646.382,5142.230,N,00451.988,E,1,12,1.0,0.0,M,0.0,M,,*6B
$GPGSA,A,3,01,02,03,04,05,06,07,08,09,10,11,12,1.0,1.0,1.0*30
$GPRMC,103646.382,A,5142.230,N,00451.988,E,007.8,318.2,120221,000.0,W*7A
$GPGGA,103647.382,5142.232,N,00451.986,E,1,12,1.0,0.0,M,0.0,M,,*66
$GPGSA,A,3,01,02,03,04,05,06,07,08,09,10,11,12,1.0,1.0,1.0*30
$GPRMC,103647.382,A,5142.232,N,00451.986,E,007.8,318.2,120221,000.0,W*77
$GPGGA,103648.382,5142.233,N,00451.984,E,1,12,1.0,0.0,M,0.0,M,,*6A
$GPGSA,A,3,01,02,03,04,05,06,07,08,09,10,11,12,1.0,1.0,1.0*30
$GPRMC,103648.382,A,5142.233,N,00451.984,E,007.8,318.2,120221,000.0,W*7B
$GPGGA,103649.382,5142.235,N,00451.983,E,1,12,1.0,0.0,M,0.0,M,,*6A
$GPGSA,A,3,01,02,03,04,05,06,07,08,09,10,11,12,1.0,1.0,1.0*30
$GPRMC,103649.382,A,5142.235,N,00451.983,E,007.8,318.2,120221,000.0,W*7B
$GPGGA,103650.382,5142.237,N,00451.981,E,1,12,1.0,0.0,M,0.0,M,,*62
$GPGSA,A,3,01,02,03,04,05,06,07,08,09,10,11,12,1.0,1.0,1.0*30
$GPRMC,103650.382,A,5142.237,N,00451.981,E,007.8,318.2,120221,000.0,W*73
$GPGGA,103651.382,5142.239,N,00451.979,E,1,12,1.0,0.0,M,0.0,M,,*6A
$GPGSA,A,3,01,02,03,04,05,06,07,08,09,10,11,12,1.0,1.0,1.0*30
$GPRMC,103651.382,A,5142.239,N,00451.979,E,007.8,318.2,120221,000.0,W*7B
$GPGGA,103652.382,5142.241,N,00451.977,E,1,12,1.0,0.0,M,0.0,M,,*68
$GPGSA,A,3,01,02,03,04,05,06,07,08,09,10,11,12,1.0,1.0,1.0*30
$GPRMC,103652.382,A,5142.241,N,00451.977,E,007.8,318.2,120221,000.0,W*79
$GPGGA,103653.382,5142.243,N,00451.976,E,1,12,1.0,0.0,M,0.0,M,,*6A
$GPGSA,A,3,01,02,03,04,05,06,07,08,09,10,11,12,1.0,1.0,1.0*30
$GPRMC,103653.382,A,5142.243,N,00451.976,E,007.8,318.2,120221,000.0,W*7B
$GPGGA,103654.382,5142.245,N,00451.974,E,1,12,1.0,0.0,M,0.0,M,,*69
$GPGSA,A,3,01,02,03,04,05,06,07,08,09,10,11,12,1.0,1.0,1.0*30
$GPRMC,103654.382,A,5142.245,N,00451.974,E,007.8,318.2,120221,000.0,W*78
$GPGGA,103655.382,5142.247,N,00451.972,E,1,12,1.0,0.0,M,0.0,M,,*6C
$GPGSA,A,3,01,02,03,04,05,06,07,08,09,10,11,12,1.0,1.0,1.0*30
$GPRMC,103655.382,A,5142.247,N,00451.972,E,007.8,318.2,120221,000.0,W*7D
$GPGGA,103656.382,5142.249,N,00451.971,E,1,12,1.0,0.0,M,0.0,M,,*62
$GPGSA,A,3,01,02,03,04,05,06,07,08,09,10,11,12,1.0,1.0,1.0*30
$GPRMC,103656.382,A,5142.249,N,00451.971,E,007.8,318.2,120221,000.0,W*73
$GPGGA,103657.382,5142.250,N,00451.969,E,1,12,1.0,0.0,M,0.0,M,,*62
$GPGSA,A,3,01,02,03,04,05,06,07,08,09,10,11,12,1.0,1.0,1.0*30
$GPRMC,103657.382,A,5142.250,N,00451.969,E,007.8,318.2,120221,000.0,W*73
$GPGGA,103658.382,5142.252,N,00451.967,E,1,12,1.0,0.0,M,0.0,M,,*61
$GPGSA,A,3,01,02,03,04,05,06,07,08,09,10,11,12,1.0,1.0,1.0*30
$GPRMC,103658.382,A,5142.252,N,00451.967,E,007.8,318.2,120221,000.0,W*70
$GPGGA,103659.382,5142.254,N,00451.966,E,1,12,1.0,0.0,M,0.0,M,,*67
$GPGSA,A,3,01,02,03,04,05,06,07,08,09,10,11,12,1.0,1.0,1.0*30
$GPRMC,103659.382,A,5142.254,N,00451.966,E,007.8,318.2,120221,000.0,W*76
$GPGGA,103700.382,5142.256,N,00451.964,E,1,12,1.0,0.0,M,0.0,M,,*6A
$GPGSA,A,3,01,02,03,04,05,06,07,08,09,10,11,12,1.0,1.0,1.0*30
$GPRMC,103700.382,A,5142.256,N,00451.964,E,007.8,318.2,120221,000.0,W*7B
$GPGGA,103701.382,5142.258,N,00451.962,E,1,12,1.0,0.0,M,0.0,M,,*63
$GPGSA,A,3,01,02,03,04,05,06,07,08,09,10,11,12,1.0,1.0,1.0*30
$GPRMC,103701.382,A,5142.258,N,00451.962,E,007.8,318.2,120221,000.0,W*72
$GPGGA,103702.382,5142.260,N,00451.961,E,1,12,1.0,0.0,M,0.0,M,,*68
$GPGSA,A,3,01,02,03,04,05,06,07,08,09,10,11,12,1.0,1.0,1.0*30
$GPRMC,103702.382,A,5142.260,N,00451.961,E,007.8,318.2,120221,000.0,W*79
$GPGGA,103703.382,5142.262,N,00451.959,E,1,12,1.0,0.0,M,0.0,M,,*60
$GPGSA,A,3,01,02,03,04,05,06,07,08,09,10,11,12,1.0,1.0,1.0*30
$GPRMC,103703.382,A,5142.262,N,00451.959,E,007.8,318.2,120221,000.0,W*71
$GPGGA,103704.382,5142.264,N,00451.957,E,1,12,1.0,0.0,M,0.0,M,,*6F
$GPGSA,A,3,01,02,03,04,05,06,07,08,09,10,11,12,1.0,1.0,1.0*30
$GPRMC,103704.382,A,5142.264,N,00451.957,E,007.8,318.2,120221,000.0,W*7E
$GPGGA,103705.382,5142.266,N,00451.955,E,1,12,1.0,0.0,M,0.0,M,,*6E
$GPGSA,A,3,01,02,03,04,05,06,07,08,09,10,11,12,1.0,1.0,1.0*30
$GPRMC,103705.382,A,5142.266,N,00451.955,E,007.8,318.2,120221,000.0,W*7F
$GPGGA,103706.382,5142.267,N,00451.954,E,1,12,1.0,0.0,M,0.0,M,,*6D
$GPGSA,A,3,01,02,03,04,05,06,07,08,09,10,11,12,1.0,1.0,1.0*30
$GPRMC,103706.382,A,5142.267,N,00451.954,E,007.8,318.2,120221,000.0,W*7C
$GPGGA,103707.382,5142.269,N,00451.952,E,1,12,1.0,0.0,M,0.0,M,,*64
$GPGSA,A,3,01,02,03,04,05,06,07,08,09,10,11,12,1.0,1.0,1.0*30
$GPRMC,103707.382,A,5142.269,N,00451.952,E,007.8,318.2,120221,000.0,W*75
$GPGGA,103708.382,5142.271,N,00451.950,E,1,12,1.0,0.0,M,0.0,M,,*60
$GPGSA,A,3,01,02,03,04,05,06,07,08,09,10,11,12,1.0,1.0,1.0*30
$GPRMC,103708.382,A,5142.271,N,00451.950,E,007.8,318.2,120221,000.0,W*71
$GPGGA,103709.382,5142.273,N,00451.949,E,1,12,1.0,0.0,M,0.0,M,,*6B
$GPGSA,A,3,01,02,03,04,05,06,07,08,09,10,11,12,1.0,1.0,1.0*30
$GPRMC,103709.382,A,5142.273,N,00451.949,E,007.8,318.2,120221,000.0,W*7A
$GPGGA,103710.382,5142.275,N,00451.947,E,1,12,1.0,0.0,M,0.0,M,,*6B
$GPGSA,A,3,01,02,03,04,05,06,07,08,09,10,11,12,1.0,1.0,1.0*30
$GPRMC,103710.382,A,5142.275,N,00451.947,E,007.8,318.2,120221,000.0,W*7A
$GPGGA,103711.382,5142.277,N,00451.945,E,1,12,1.0,0.0,M,0.0,M,,*6A
$GPGSA,A,3,01,02,03,04,05,06,07,08,09,10,11,12,1.0,1.0,1.0*30
$GPRMC,103711.382,A,5142.277,N,00451.945,E,007.8,318.2,120221,000.0,W*7B
$GPGGA,103712.382,5142.279,N,00451.944,E,1,12,1.0,0.0,M,0.0,M,,*66
$GPGSA,A,3,01,02,03,04,05,06,07,08,09,10,11,12,1.0,1.0,1.0*30
$GPRMC,103712.382,A,5142.279,N,00451.944,E,007.8,318.2,120221,000.0,W*77
$GPGGA,103713.382,5142.281,N,00451.942,E,1,12,1.0,0.0,M,0.0,M,,*66
$GPGSA,A,3,01,02,03,04,05,06,07,08,09,10,11,12,1.0,1.0,1.0*30
$GPRMC,103713.382,A,5142.281,N,00451.942,E,007.8,318.2,120221,000.0,W*77
$GPGGA,103714.382,5142.283,N,00451.940,E,1,12,1.0,0.0,M,0.0,M,,*61
$GPGSA,A,3,01,02,03,04,05,06,07,08,09,10,11,12,1.0,1.0,1.0*30
$GPRMC,103714.382,A,5142.283,N,00451.940,E,007.8,318.2,120221,000.0,W*70
$GPGGA,103715.382,5142.284,N,00451.939,E,1,12,1.0,0.0,M,0.0,M,,*69
$GPGSA,A,3,01,02,03,04,05,06,07,08,09,10,11,12,1.0,1.0,1.0*30
$GPRMC,103715.382,A,5142.284,N,00451.939,E,007.8,318.2,120221,000.0,W*78
$GPGGA,103716.382,5142.286,N,00451.937,E,1,12,1.0,0.0,M,0.0,M,,*66
$GPGSA,A,3,01,02,03,04,05,06,07,08,09,10,11,12,1.0,1.0,1.0*30
$GPRMC,103716.382,A,5142.286,N,00451.937,E,007.8,318.2,120221,000.0,W*77
$GPGGA,103717.382,5142.288,N,00451.935,E,1,12,1.0,0.0,M,0.0,M,,*6B
$GPGSA,A,3,01,02,03,04,05,06,07,08,09,10,11,12,1.0,1.0,1.0*30
$GPRMC,103717.382,A,5142.288,N,00451.935,E,007.8,318.2,120221,000.0,W*7A
$GPGGA,103718.382,5142.290,N,00451.934,E,1,12,1.0,0.0,M,0.0,M,,*6C
$GPGSA,A,3,01,02,03,04,05,06,07,08,09,10,11,12,1.0,1.0,1.0*30
$GPRMC,103718.382,A,5142.290,N,00451.934,E,007.8,318.2,120221,000.0,W*7D
$GPGGA,103719.382,5142.292,N,00451.932,E,1,12,1.0,0.0,M,0.0,M,,*69
$GPGSA,A,3,01,02,03,04,05,06,07,08,09,10,11,12,1.0,1.0,1.0*30
$GPRMC,103719.382,A,5142.292,N,00451.932,E,007.8,318.2,120221,000.0,W*78
$GPGGA,103720.382,5142.294,N,00451.930,E,1,12,1.0,0.0,M,0.0,M,,*67
$GPGSA,A,3,01,02,03,04,05,06,07,08,09,10,11,12,1.0,1.0,1.0*30
$GPRMC,103720.382,A,5142.294,N,00451.930,E,007.8,318.2,120221,000.0,W*76
$GPGGA,103721.382,5142.296,N,00451.928,E,1,12,1.0,0.0,M,0.0,M,,*6D
$GPGSA,A,3,01,02,03,04,05,06,07,08,09,10,11,12,1.0,1.0,1.0*30
$GPRMC,103721.382,A,5142.296,N,00451.928,E,007.8,318.2,120221,000.0,W*7C
$GPGGA,103722.382,5142.298,N,00451.927,E,1,12,1.0,0.0,M,0.0,M,,*6F
$GPGSA,A,3,01,02,03,04,05,06,07,08,09,10,11,12,1.0,1.0,1.0*30
$GPRMC,103722.382,A,5142.298,N,00451.927,E,007.8,318.2,120221,000.0,W*7E
$GPGGA,103723.382,5142.299,N,00451.925,E,1,12,1.0,0.0,M,0.0,M,,*6D
$GPGSA,A,3,01,02,03,04,05,06,07,08,09,10,11,12,1.0,1.0,1.0*30
$GPRMC,103723.382,A,5142.299,N,00451.925,E,007.8,318.2,120221,000.0,W*7C
$GPGGA,103724.382,5142.301,N,00451.923,E,1,12,1.0,0.0,M,0.0,M,,*6C
$GPGSA,A,3,01,02,03,04,05,06,07,08,09,10,11,12,1.0,1.0,1.0*30
$GPRMC,103724.382,A,5142.301,N,00451.923,E,007.8,318.2,120221,000.0,W*7D
$GPGGA,103725.382,5142.303,N,00451.922,E,1,12,1.0,0.0,M,0.0,M,,*6E
$GPGSA,A,3,01,02,03,04,05,06,07,08,09,10,11,12,1.0,1.0,1.0*30
$GPRMC,103725.382,A,5142.303,N,00451.922,E,007.8,318.2,120221,000.0,W*7F
$GPGGA,103726.382,5142.305,N,00451.920,E,1,12,1.0,0.0,M,0.0,M,,*69
$GPGSA,A,3,01,02,03,04,05,06,07,08,09,10,11,12,1.0,1.0,1.0*30
$GPRMC,103726.382,A,5142.305,N,00451.920,E,007.8,318.2,120221,000.0,W*78
$GPGGA,103727.382,5142.307,N,00451.918,E,1,12,1.0,0.0,M,0.0,M,,*61
$GPGSA,A,3,01,02,03,04,05,06,07,08,09,10,11,12,1.0,1.0,1.0*30
$GPRMC,103727.382,A,5142.307,N,00451.918,E,007.8,318.2,120221,000.0,W*70
$GPGGA,103728.382,5142.309,N,00451.917,E,1,12,1.0,0.0,M,0.0,M,,*6F
$GPGSA,A,3,01,02,03,04,05,06,07,08,09,10,11,12,1.0,1.0,1.0*30
$GPRMC,103728.382,A,5142.309,N,00451.917,E,007.8,318.2,120221,000.0,W*7E
$GPGGA,103729.382,5142.311,N,00451.915,E,1,12,1.0,0.0,M,0.0,M,,*65
$GPGSA,A,3,01,02,03,04,05,06,07,08,09,10,11,12,1.0,1.0,1.0*30
$GPRMC,103729.382,A,5142.311,N,00451.915,E,007.8,318.2,120221,000.0,W*74
$GPGGA,103730.382,5142.313,N,00451.913,E,1,12,1.0,0.0,M,0.0,M,,*69
$GPGSA,A,3,01,02,03,04,05,06,07,08,09,10,11,12,1.0,1.0,1.0*30
$GPRMC,103730.382,A,5142.313,N,00451.913,E,007.8,318.2,120221,000.0,W*78
$GPGGA,103731.382,5142.315,N,00451.912,E,1,12,1.0,0.0,M,0.0,M,,*6F
$GPGSA,A,3,01,02,03,04,05,06,07,08,09,10,11,12,1.0,1.0,1.0*30
$GPRMC,103731.382,A,5142.315,N,00451.912,E,007.8,318.2,120221,000.0,W*7E
$GPGGA,103732.382,5142.316,N,00451.910,E,1,12,1.0,0.0,M,0.0,M,,*6D
$GPGSA,A,3,01,02,03,04,05,06,07,08,09,10,11,12,1.0,1.0,1.0*30
$GPRMC,103732.382,A,5142.316,N,00451.910,E,007.8,318.2,120221,000.0,W*7C
$GPGGA,103733.382,5142.318,N,00451.908,E,1,12,1.0,0.0,M,0.0,M,,*6B
$GPGSA,A,3,01,02,03,04,05,06,07,08,09,10,11,12,1.0,1.0,1.0*30
$GPRMC,103733.382,A,5142.318,N,00451.908,E,007.8,318.2,120221,000.0,W*7A
$GPGGA,103734.382,5142.320,N,00451.906,E,1,12,1.0,0.0,M,0.0,M,,*69
$GPGSA,A,3,01,02,03,04,05,06,07,08,09,10,11,12,1.0,1.0,1.0*30
$GPRMC,103734.382,A,5142.320,N,00451.906,E,007.8,318.2,120221,000.0,W*78
$GPGGA,103735.382,5142.322,N,00451.905,E,1,12,1.0,0.0,M,0.0,M,,*69
$GPGSA,A,3,01,02,03,04,05,06,07,08,09,10,11,12,1.0,1.0,1.0*30
$GPRMC,103735.382,A,5142.322,N,00451.905,E,007.8,318.2,120221,000.0,W*78
$GPGGA,103736.382,5142.324,N,00451.903,E,1,12,1.0,0.0,M,0.0,M,,*6A
$GPGSA,A,3,01,02,03,04,05,06,07,08,09,10,11,12,1.0,1.0,1.0*30
$GPRMC,103736.382,A,5142.324,N,00451.903,E,007.8,318.2,120221,000.0,W*7B
$GPGGA,103737.382,5142.326,N,00451.901,E,1,12,1.0,0.0,M,0.0,M,,*6B
$GPGSA,A,3,01,02,03,04,05,06,07,08,09,10,11,12,1.0,1.0,1.0*30
$GPRMC,103737.382,A,5142.326,N,00451.901,E,007.8,318.2,120221,000.0,W*7A
$GPGGA,103738.382,5142.328,N,00451.900,E,1,12,1.0,0.0,M,0.0,M,,*6B
$GPGSA,A,3,01,02,03,04,05,06,07,08,09,10,11,12,1.0,1.0,1.0*30
$GPRMC,103738.382,A,5142.328,N,00451.900,E,007.8,316.6,120221,000.0,W*70
$GPGGA,103739.382,5142.330,N,00451.898,E,1,12,1.0,0.0,M,0.0,M,,*63
$GPGSA,A,3,01,02,03,04,05,06,07,08,09,10,11,12,1.0,1.0,1.0*30
$GPRMC,103739.382,A,5142.330,N,00451.898,E,007.8,316.6,120221,000.0,W*78
$GPGGA,103740.382,5142.332,N,00451.896,E,1,12,1.0,0.0,M,0.0,M,,*61
$GPGSA,A,3,01,02,03,04,05,06,07,08,09,10,11,12,1.0,1.0,1.0*30
$GPRMC,103740.382,A,5142.332,N,00451.896,E,007.8,316.6,120221,000.0,W*7A
$GPGGA,103741.382,5142.333,N,00451.894,E,1,12,1.0,0.0,M,0.0,M,,*63
$GPGSA,A,3,01,02,03,04,05,06,07,08,09,10,11,12,1.0,1.0,1.0*30
$GPRMC,103741.382,A,5142.333,N,00451.894,E,007.8,316.6,120221,000.0,W*78
$GPGGA,103742.382,5142.335,N,00451.893,E,1,12,1.0,0.0,M,0.0,M,,*61
$GPGSA,A,3,01,02,03,04,05,06,07,08,09,10,11,12,1.0,1.0,1.0*30
$GPRMC,103742.382,A,5142.335,N,00451.893,E,007.8,316.6,120221,000.0,W*7A
$GPGGA,103743.382,5142.337,N,00451.891,E,1,12,1.0,0.0,M,0.0,M,,*60
$GPGSA,A,3,01,02,03,04,05,06,07,08,09,10,11,12,1.0,1.0,1.0*30
$GPRMC,103743.382,A,5142.337,N,00451.891,E,007.8,316.6,120221,000.0,W*7B
$GPGGA,103744.382,5142.339,N,00451.889,E,1,12,1.0,0.0,M,0.0,M,,*60
$GPGSA,A,3,01,02,03,04,05,06,07,08,09,10,11,12,1.0,1.0,1.0*30
$GPRMC,103744.382,A,5142.339,N,00451.889,E,007.8,316.6,120221,000.0,W*7B
$GPGGA,103745.382,5142.341,N,00451.887,E,1,12,1.0,0.0,M,0.0,M,,*60
$GPGSA,A,3,01,02,03,04,05,06,07,08,09,10,11,12,1.0,1.0,1.0*30
$GPRMC,103745.382,A,5142.341,N,00451.887,E,007.8,316.6,120221,000.0,W*7B
$GPGGA,103746.382,5142.343,N,00451.886,E,1,12,1.0,0.0,M,0.0,M,,*60
$GPGSA,A,3,01,02,03,04,05,06,07,08,09,10,11,12,1.0,1.0,1.0*30
$GPRMC,103746.382,A,5142.343,N,00451.886,E,007.8,316.6,120221,000.0,W*7B
$GPGGA,103747.382,5142.345,N,00451.884,E,1,12,1.0,0.0,M,0.0,M,,*65
$GPGSA,A,3,01,02,03,04,05,06,07,08,09,10,11,12,1.0,1.0,1.0*30
$GPRMC,103747.382,A,5142.345,N,00451.884,E,007.8,316.6,120221,000.0,W*7E
$GPGGA,103748.382,5142.346,N,00451.882,E,1,12,1.0,0.0,M,0.0,M,,*6F
$GPGSA,A,3,01,02,03,04,05,06,07,08,09,10,11,12,1.0,1.0,1.0*30
$GPRMC,103748.382,A,5142.346,N,00451.882,E,007.8,316.6,120221,000.0,W*74
$GPGGA,103749.382,5142.348,N,00451.880,E,1,12,1.0,0.0,M,0.0,M,,*62
$GPGSA,A,3,01,02,03,04,05,06,07,08,09,10,11,12,1.0,1.0,1.0*30
$GPRMC,103749.382,A,5142.348,N,00451.880,E,007.8,316.6,120221,000.0,W*79
$GPGGA,103750.382,5142.350,N,00451.878,E,1,12,1.0,0.0,M,0.0,M,,*64
$GPGSA,A,3,01,02,03,04,05,06,07,08,09,10,11,12,1.0,1.0,1.0*30
$GPRMC,103750.382,A,5142.350,N,00451.878,E,007.8,316.6,120221,000.0,W*7F
$GPGGA,103751.382,5142.352,N,00451.877,E,1,12,1.0,0.0,M,0.0,M,,*68
$GPGSA,A,3,01,02,03,04,05,06,07,08,09,10,11,12,1.0,1.0,1.0*30
$GPRMC,103751.382,A,5142.352,N,00451.877,E,007.8,316.6,120221,000.0,W*73
$GPGGA,103752.382,5142.354,N,00451.875,E,1,12,1.0,0.0,M,0.0,M,,*6F
$GPGSA,A,3,01,02,03,04,05,06,07,08,09,10,11,12,1.0,1.0,1.0*30
$GPRMC,103752.382,A,5142.354,N,00451.875,E,007.8,316.6,120221,000.0,W*74
$GPGGA,103753.382,5142.356,N,00451.873,E,1,12,1.0,0.0,M,0.0,M,,*6A
$GPGSA,A,3,01,02,03,04,05,06,07,08,09,10,11,12,1.0,1.0,1.0*30
$GPRMC,103753.382,A,5142.356,N,00451.873,E,007.8,316.6,120221,000.0,W*71
$GPGGA,103754.382,5142.358,N,00451.871,E,1,12,1.0,0.0,M,0.0,M,,*61
$GPGSA,A,3,01,02,03,04,05,06,07,08,09,10,11,12,1.0,1.0,1.0*30
$GPRMC,103754.382,A,5142.358,N,00451.871,E,007.8,316.6,120221,000.0,W*7A
$GPGGA,103755.382,5142.359,N,00451.870,E,1,12,1.0,0.0,M,0.0,M,,*60
$GPGSA,A,3,01,02,03,04,05,06,07,08,09,10,11,12,1.0,1.0,1.0*30
$GPRMC,103755.382,A,5142.359,N,00451.870,E,007.8,316.6,120221,000.0,W*7B
$GPGGA,103756.382,5142.361,N,00451.868,E,1,12,1.0,0.0,M,0.0,M,,*61
$GPGSA,A,3,01,02,03,04,05,06,07,08,09,10,11,12,1.0,1.0,1.0*30
$GPRMC,103756.382,A,5142.361,N,00451.868,E,007.8,316.6,120221,000.0,W*7A
$GPGGA,103757.382,5142.363,N,00451.866,E,1,12,1.0,0.0,M,0.0,M,,*6C
$GPGSA,A,3,01,02,03,04,05,06,07,08,09,10,11,12,1.0,1.0,1.0*30
$GPRMC,103757.382,A,5142.363,N,00451.866,E,007.8,316.6,120221,000.0,W*77
$GPGGA,103758.382,5142.365,N,00451.864,E,1,12,1.0,0.0,M,0.0,M,,*67
$GPGSA,A,3,01,02,03,04,05,06,07,08,09,10,11,12,1.0,1.0,1.0*30
$GPRMC,103758.382,A,5142.365,N,00451.864,E,007.8,316.6,120221,000.0,W*7C
$GPGGA,103759.382,5142.367,N,00451.863,E,1,12,1.0,0.0,M,0.0,M,,*63
$GPGSA,A,3,01,02,03,04,05,06,07,08,09,10,11,12,1.0,1.0,1.0*30
$GPRMC,103759.382,A,5142.367,N,00451.863,E,007.8,316.6,120221,000.0,W*78
$GPGGA,103800.382,5142.369,N,00451.861,E,1,12,1.0,0.0,M,0.0,M,,*6C
$GPGSA,A,3,01,02,03,04,05,06,07,08,09,10,11,12,1.0,1.0,1.0*30
$GPRMC,103800.382,A,5142.369,N,00451.861,E,007.8,316.6,120221,000.0,W*77
$GPGGA,103801.382,5142.371,N,00451.859,E,1,12,1.0,0.0,M,0.0,M,,*6F
$GPGSA,A,3,01,02,03,04,05,06,07,08,09,10,11,12,1.0,1.0,1.0*30
$GPRMC,103801.382,A,5142.371,N,00451.859,E,007.8,316.6,120221,000.0,W*74
$GPGGA,103802.382,5142.372,N,00451.857,E,1,12,1.0,0.0,M,0.0,M,,*61
$GPGSA,A,3,01,02,03,04,05,06,07,08,09,10,11,12,1.0,1.0,1.0*30
$GPRMC,103802.382,A,5142.372,N,00451.857,E,007.8,316.6,120221,000.0,W*7A
$GPGGA,103803.382,5142.374,N,00451.855,E,1,12,1.0,0.0,M,0.0,M,,*64
$GPGSA,A,3,01,02,03,04,05,06,07,08,09,10,11,12,1.0,1.0,1.0*30
$GPRMC,103803.382,A,5142.374,N,00451.855,E,007.8,316.6,120221,000.0,W*7F
$GPGGA,103804.382,5142.376,N,00451.854,E,1,12,1.0,0.0,M,0.0,M,,*60
$GPGSA,A,3,01,02,03,04,05,06,07,08,09,10,11,12,1.0,1.0,1.0*30
$GPRMC,103804.382,A,5142.376,N,00451.854,E,007.8,316.6,120221,000.0,W*7B
$GPGGA,103805.382,5142.378,N,00451.852,E,1,12,1.0,0.0,M,0.0,M,,*69
$GPGSA,A,3,01,02,03,04,05,06,07,08,09,10,11,12,1.0,1.0,1.0*30
$GPRMC,103805.382,A,5142.378,N,00451.852,E,007.8,316.6,120221,000.0,W*72
$GPGGA,103806.382,5142.380,N,00451.850,E,1,12,1.0,0.0,M,0.0,M,,*6F
$GPGSA,A,3,01,02,03,04,05,06,07,08,09,10,11,12,1.0,1.0,1.0*30
$GPRMC,103806.382,A,5142.380,N,00451.850,E,007.8,316.6,120221,000.0,W*74
$GPGGA,103807.382,5142.382,N,00451.848,E,1,12,1.0,0.0,M,0.0,M,,*65
$GPGSA,A,3,01,02,03,04,05,06,07,08,09,10,11,12,1.0,1.0,1.0*30
$GPRMC,103807.382,A,5142.382,N,00451.848,E,007.8,316.6,120221,000.0,W*7E
$GPGGA,103808.382,5142.384,N,00451.847,E,1,12,1.0,0.0,M,0.0,M,,*63
$GPGSA,A,3,01,02,03,04,05,06,07,08,09,10,11,12,1.0,1.0,1.0*30
$GPRMC,103808.382,A,5142.384,N,00451.847,E,007.8,316.6,120221,000.0,W*78
$GPGGA,103809.382,5142.385,N,00451.845,E,1,12,1.0,0.0,M,0.0,M,,*61
$GPGSA,A,3,01,02,03,04,05,06,07,08,09,10,11,12,1.0,1.0,1.0*30
$GPRMC,103809.382,A,5142.385,N,00451.845,E,007.8,316.6,120221,000.0,W*7A
$GPGGA,103810.382,5142.387,N,00451.843,E,1,12,1.0,0.0,M,0.0,M,,*6D
$GPGSA,A,3,01,02,03,04,05,06,07,08,09,10,11,12,1.0,1.0,1.0*30
$GPRMC,103810.382,A,5142.387,N,00451.843,E,007.8,316.6,120221,000.0,W*76
$GPGGA,103811.382,5142.389,N,00451.841,E,1,12,1.0,0.0,M,0.0,M,,*60
$GPGSA,A,3,01,02,03,04,05,06,07,08,09,10,11,12,1.0,1.0,1.0*30
$GPRMC,103811.382,A,5142.389,N,00451.841,E,007.8,316.6,120221,000.0,W*7B
$GPGGA,103812.382,5142.391,N,00451.840,E,1,12,1.0,0.0,M,0.0,M,,*6B
$GPGSA,A,3,01,02,03,04,05,06,07,08,09,10,11,12,1.0,1.0,1.0*30
$GPRMC,103812.382,A,5142.391,N,00451.840,E,007.8,316.6,120221,000.0,W*70
$GPGGA,103813.382,5142.393,N,00451.838,E,1,12,1.0,0.0,M,0.0,M,,*67
$GPGSA,A,3,01,02,03,04,05,06,07,08,09,10,11,12,1.0,1.0,1.0*30
$GPRMC,103813.382,A,5142.393,N,00451.838,E,007.8,316.6,120221,000.0,W*7C
$GPGGA,103814.382,5142.395,N,00451.836,E,1,12,1.0,0.0,M,0.0,M,,*68
$GPGSA,A,3,01,02,03,04,05,06,07,08,09,10,11,12,1.0,1.0,1.0*30
$GPRMC,103814.382,A,5142.395,N,00451.836,E,007.8,316.6,120221,000.0,W*73
$GPGGA,103815.382,5142.397,N,00451.834,E,1,12,1.0,0.0,M,0.0,M,,*69
$GPGSA,A,3,01,02,03,04,05,06,07,08,09,10,11,12,1.0,1.0,1.0*30
$GPRMC,103815.382,A,5142.397,N,00451.834,E,007.8,316.6,120221,000.0,W*72
$GPGGA,103816.382,5142.398,N,00451.832,E,1,12,1.0,0.0,M,0.0,M,,*63
$GPGSA,A,3,01,02,03,04,05,06,07,08,09,10,11,12,1.0,1.0,1.0*30
$GPRMC,103816.382,A,5142.398,N,00451.832,E,007.8,316.6,120221,000.0,W*78
$GPGGA,103817.382,5142.400,N,00451.831,E,1,12,1.0,0.0,M,0.0,M,,*67
$GPGSA,A,3,01,02,03,04,05,06,07,08,09,10,11,12,1.0,1.0,1.0*30
$GPRMC,103817.382,A,5142.400,N,00451.831,E,007.8,316.6,120221,000.0,W*7C
$GPGGA,103818.382,5142.402,N,00451.829,E,1,12,1.0,0.0,M,0.0,M,,*63
$GPGSA,A,3,01,02,03,04,05,06,07,08,09,10,11,12,1.0,1.0,1.0*30
$GPRMC,103818.382,A,5142.402,N,00451.829,E,007.8,316.6,120221,000.0,W*78
$GPGGA,103819.382,5142.404,N,00451.827,E,1,12,1.0,0.0,M,0.0,M,,*6A
$GPGSA,A,3,01,02,03,04,05,06,07,08,09,10,11,12,1.0,1.0,1.0*30
$GPRMC,103819.382,A,5142.404,N,00451.827,E,007.8,316.6,120221,000.0,W*71
$GPGGA,103820.382,5142.406,N,00451.825,E,1,12,1.0,0.0,M,0.0,M,,*60
$GPGSA,A,3,01,02,03,04,05,06,07,08,09,10,11,12,1.0,1.0,1.0*30
$GPRMC,103820.382,A,5142.406,N,00451.825,E,007.8,316.6,120221,000.0,W*7B
$GPGGA,103821.382,5142.408,N,00451.824,E,1,12,1.0,0.0,M,0.0,M,,*6E
$GPGSA,A,3,01,02,03,04,05,06,07,08,09,10,11,12,1.0,1.0,1.0*30
$GPRMC,103821.382,A,5142.408,N,00451.824,E,007.8,316.6,120221,000.0,W*75
$GPGGA,103822.382,5142.410,N,00451.822,E,1,12,1.0,0.0,M,0.0,M,,*62
$GPGSA,A,3,01,02,03,04,05,06,07,08,09,10,11,12,1.0,1.0,1.0*30
$GPRMC,103822.382,A,5142.410,N,00451.822,E,007.8,316.6,120221,000.0,W*79
$GPGGA,103823.382,5142.411,N,00451.820,E,1,12,1.0,0.0,M,0.0,M,,*60
$GPGSA,A,3,01,02,03,04,05,06,07,08,09,10,11,12,1.0,1.0,1.0*30
$GPRMC,103823.382,A,5142.411,N,00451.820,E,007.8,316.6,120221,000.0,W*7B
$GPGGA,103824.382,5142.413,N,00451.818,E,1,12,1.0,0.0,M,0.0,M,,*6E
$GPGSA,A,3,01,02,03,04,05,06,07,08,09,10,11,12,1.0,1.0,1.0*30
$GPRMC,103824.382,A,5142.413,N,00451.818,E,007.8,316.6,120221,000.0,W*75
$GPGGA,103825.382,5142.415,N,00451.817,E,1,12,1.0,0.0,M,0.0,M,,*66
$GPGSA,A,3,01,02,03,04,05,06,07,08,09,10,11,12,1.0,1.0,1.0*30
$GPRMC,103825.382,A,5142.415,N,00451.817,E,007.8,316.6,120221,000.0,W*7D
$GPGGA,103826.382,5142.417,N,00451.815,E,1,12,1.0,0.0,M,0.0,M,,*65
$GPGSA,A,3,01,02,03,04,05,06,07,08,09,10,11,12,1.0,1.0,1.0*30
$GPRMC,103826.382,A,5142.417,N,00451.815,E,007.8,316.6,120221,000.0,W*7E
$GPGGA,103827.382,5142.419,N,00451.813,E,1,12,1.0,0.0,M,0.0,M,,*6C
$GPGSA,A,3,01,02,03,04,05,06,07,08,09,10,11,12,1.0,1.0,1.0*30
$GPRMC,103827.382,A,5142.419,N,00451.813,E,007.8,316.6,120221,000.0,W*77
$GPGGA,103828.382,5142.421,N,00451.811,E,1,12,1.0,0.0,M,0.0,M,,*6A
$GPGSA,A,3,01,02,03,04,05,06,07,08,09,10,11,12,1.0,1.0,1.0*30
$GPRMC,103828.382,A,5142.421,N,00451.811,E,007.8,316.6,120221,000.0,W*71
$GPGGA,103829.382,5142.423,N,00451.810,E,1,12,1.0,0.0,M,0.0,M,,*68
$GPGSA,A,3,01,02,03,04,05,06,07,08,09,10,11,12,1.0,1.0,1.0*30
$GPRMC,103829.382,A,5142.423,N,00451.810,E,007.8,316.6,120221,000.0,W*73
$GPGGA,103830.382,5142.424,N,00451.808,E,1,12,1.0,0.0,M,0.0,M,,*6E
$GPGSA,A,3,01,02,03,04,05,06,07,08,09,10,11,12,1.0,1.0,1.0*30
$GPRMC,103830.382,A,5142.424,N,00451.808,E,007.8,316.6,120221,000.0,W*75
$GPGGA,103831.382,5142.426,N,00451.806,E,1,12,1.0,0.0,M,0.0,M,,*63
$GPGSA,A,3,01,02,03,04,05,06,07,08,09,10,11,12,1.0,1.0,1.0*30
$GPRMC,103831.382,A,5142.426,N,00451.806,E,007.8,316.6,120221,000.0,W*78
$GPGGA,103832.382,5142.428,N,00451.804,E,1,12,1.0,0.0,M,0.0,M,,*6C
$GPGSA,A,3,01,02,03,04,05,06,07,08,09,10,11,12,1.0,1.0,1.0*30
$GPRMC,103832.382,A,5142.428,N,00451.804,E,007.8,316.6,120221,000.0,W*77
$GPGGA,103833.382,5142.430,N,00451.802,E,1,12,1.0,0.0,M,0.0,M,,*62
$GPGSA,A,3,01,02,03,04,05,06,07,08,09,10,11,12,1.0,1.0,1.0*30
$GPRMC,103833.382,A,5142.430,N,00451.802,E,007.8,316.6,120221,000.0,W*79
$GPGGA,103834.382,5142.432,N,00451.801,E,1,12,1.0,0.0,M,0.0,M,,*64
$GPGSA,A,3,01,02,03,04,05,06,07,08,09,10,11,12,1.0,1.0,1.0*30
$GPRMC,103834.382,A,5142.432,N,00451.801,E,007.8,316.6,120221,000.0,W*7F
$GPGGA,103835.382,5142.434,N,00451.799,E,1,12,1.0,0.0,M,0.0,M,,*6D
$GPGSA,A,3,01,02,03,04,05,06,07,08,09,10,11,12,1.0,1.0,1.0*30
$GPRMC,103835.382,A,5142.434,N,00451.799,E,007.8,316.6,120221,000.0,W*76
$GPGGA,103836.382,5142.436,N,00451.797,E,1,12,1.0,0.0,M,0.0,M,,*62
$GPGSA,A,3,01,02,03,04,05,06,07,08,09,10,11,12,1.0,1.0,1.0*30
$GPRMC,103836.382,A,5142.436,N,00451.797,E,007.8,316.6,120221,000.0,W*79
$GPGGA,103837.382,5142.437,N,00451.795,E,1,12,1.0,0.0,M,0.0,M,,*60
$GPGSA,A,3,01,02,03,04,05,06,07,08,09,10,11,12,1.0,1.0,1.0*30
$GPRMC,103837.382,A,5142.437,N,00451.795,E,007.8,316.6,120221,000.0,W*7B
$GPGGA,103838.382,5142.439,N,00451.794,E,1,12,1.0,0.0,M,0.0,M,,*60
$GPGSA,A,3,01,02,03,04,05,06,07,08,09,10,11,12,1.0,1.0,1.0*30
$GPRMC,103838.382,A,5142.439,N,00451.794,E,007.8,316.6,120221,000.0,W*7B
$GPGGA,103839.382,5142.441,N,00451.792,E,1,12,1.0,0.0,M,0.0,M,,*68
$GPGSA,A,3,01,02,03,04,05,06,07,08,09,10,11,12,1.0,1.0,1.0*30
$GPRMC,103839.382,A,5142.441,N,00451.792,E,007.8,316.6,120221,000.0,W*73
$GPGGA,103840.382,5142.443,N,00451.790,E,1,12,1.0,0.0,M,0.0,M,,*66
$GPGSA,A,3,01,02,03,04,05,06,07,08,09,10,11,12,1.0,1.0,1.0*30
$GPRMC,103840.382,A,5142.443,N,00451.790,E,007.8,316.6,120221,000.0,W*7D
$GPGGA,103841.382,5142.445,N,00451.788,E,1,12,1.0,0.0,M,0.0,M,,*68
$GPGSA,A,3,01,02,03,04,05,06,07,08,09,10,11,12,1.0,1.0,1.0*30
$GPRMC,103841.382,A,5142.445,N,00451.788,E,007.8,316.6,120221,000.0,W*73
$GPGGA,103842.382,5142.447,N,00451.787,E,1,12,1.0,0.0,M,0.0,M,,*66
$GPGSA,A,3,01,02,03,04,05,06,07,08,09,10,11,12,1.0,1.0,1.0*30
$GPRMC,103842.382,A,5142.447,N,00451.787,E,007.8,316.6,120221,000.0,W*7D
$GPGGA,103843.382,5142.449,N,00451.785,E,1,12,1.0,0.0,M,0.0,M,,*6B
$GPGSA,A,3,01,02,03,04,05,06,07,08,09,10,11,12,1.0,1.0,1.0*30
$GPRMC,103843.382,A,5142.449,N,00451.785,E,007.8,316.6,120221,000.0,W*70
$GPGGA,103844.382,5142.451,N,00451.783,E,1,12,1.0,0.0,M,0.0,M,,*63
$GPGSA,A,3,01,02,03,04,05,06,07,08,09,10,11,12,1.0,1.0,1.0*30
$GPRMC,103844.382,A,5142.451,N,00451.783,E,007.8,316.6,120221,000.0,W*78
$GPGGA,103845.382,5142.452,N,00451.781,E,1,12,1.0,0.0,M,0.0,M,,*63
$GPGSA,A,3,01,02,03,04,05,06,07,08,09,10,11,12,1.0,1.0,1.0*30
$GPRMC,103845.382,A,5142.452,N,00451.781,E,007.8,319.7,120221,000.0,W*76
$GPGGA,103846.382,5142.454,N,00451.780,E,1,12,1.0,0.0,M,0.0,M,,*67
$GPGSA,A,3,01,02,03,04,05,06,07,08,09,10,11,12,1.0,1.0,1.0*30
$GPRMC,103846.382,A,5142.454,N,00451.780,E,007.8,319.7,120221,000.0,W*72
$GPGGA,103847.382,5142.456,N,00451.778,E,1,12,1.0,0.0,M,0.0,M,,*63
$GPGSA,A,3,01,02,03,04,05,06,07,08,09,10,11,12,1.0,1.0,1.0*30
$GPRMC,103847.382,A,5142.456,N,00451.778,E,007.8,319.7,120221,000.0,W*76
$GPGGA,103848.382,5142.458,N,00451.776,E,1,12,1.0,0.0,M,0.0,M,,*6C
$GPGSA,A,3,01,02,03,04,05,06,07,08,09,10,11,12,1.0,1.0,1.0*30
$GPRMC,103848.382,A,5142.458,N,00451.776,E,007.8,319.7,120221,000.0,W*79
$GPGGA,103849.382,5142.460,N,00451.775,E,1,12,1.0,0.0,M,0.0,M,,*65
$GPGSA,A,3,01,02,03,04,05,06,07,08,09,10,11,12,1.0,1.0,1.0*30
$GPRMC,103849.382,A,5142.460,N,00451.775,E,007.8,319.7,120221,000.0,W*70
$GPGGA,103850.382,5142.462,N,00451.773,E,1,12,1.0,0.0,M,0.0,M,,*69
$GPGSA,A,3,01,02,03,04,05,06,07,08,09,10,11,12,1.0,1.0,1.0*30
$GPRMC,103850.382,A,5142.462,N,00451.773,E,007.8,319.7,120221,000.0,W*7C
$GPGGA,103851.382,5142.464,N,00451.771,E,1,12,1.0,0.0,M,0.0,M,,*6C
$GPGSA,A,3,01,02,03,04,05,06,07,08,09,10,11,12,1.0,1.0,1.0*30
$GPRMC,103851.382,A,5142.464,N,00451.771,E,007.8,319.7,120221,000.0,W*79
$GPGGA,103852.382,5142.466,N,00451.770,E,1,12,1.0,0.0,M,0.0,M,,*6C
$GPGSA,A,3,01,02,03,04,05,06,07,08,09,10,11,12,1.0,1.0,1.0*30
$GPRMC,103852.382,A,5142.466,N,00451.770,E,007.8,319.7,120221,000.0,W*79
$GPGGA,103853.382,5142.468,N,00451.768,E,1,12,1.0,0.0,M,0.0,M,,*6A
$GPGSA,A,3,01,02,03,04,05,06,07,08,09,10,11,12,1.0,1.0,1.0*30
$GPRMC,103853.382,A,5142.468,N,00451.768,E,007.8,319.7,120221,000.0,W*7F
$GPGGA,103854.382,5142.470,N,00451.767,E,1,12,1.0,0.0,M,0.0,M,,*6B
$GPGSA,A,3,01,02,03,04,05,06,07,08,09,10,11,12,1.0,1.0,1.0*30
$GPRMC,103854.382,A,5142.470,N,00451.767,E,007.8,319.7,120221,000.0,W*7E
$GPGGA,103855.382,5142.471,N,00451.765,E,1,12,1.0,0.0,M,0.0,M,,*69
$GPGSA,A,3,01,02,03,04,05,06,07,08,09,10,11,12,1.0,1.0,1.0*30
$GPRMC,103855.382,A,5142.471,N,00451.765,E,007.8,319.7,120221,000.0,W*7C
$GPGGA,103856.382,5142.473,N,00451.763,E,1,12,1.0,0.0,M,0.0,M,,*6E
$GPGSA,A,3,01,02,03,04,05,06,07,08,09,10,11,12,1.0,1.0,1.0*30
$GPRMC,103856.382,A,5142.473,N,00451.763,E,007.8,319.7,120221,000.0,W*7B
$GPGGA,103857.382,5142.475,N,00451.762,E,1,12,1.0,0.0,M,0.0,M,,*68
$GPGSA,A,3,01,02,03,04,05,06,07,08,09,10,11,12,1.0,1.0,1.0*30
$GPRMC,103857.382,A,5142.475,N,00451.762,E,007.8,319.7,120221,000.0,W*7D
$GPGGA,103858.382,5142.477,N,00451.760,E,1,12,1.0,0.0,M,0.0,M,,*67
$GPGSA,A,3,01,02,03,04,05,06,07,08,09,10,11,12,1.0,1.0,1.0*30
$GPRMC,103858.382,A,5142.477,N,00451.760,E,007.8,319.7,120221,000.0,W*72
$GPGGA,103859.382,5142.479,N,00451.758,E,1,12,1.0,0.0,M,0.0,M,,*63
$GPGSA,A,3,01,02,03,04,05,06,07,08,09,10,11,12,1.0,1.0,1.0*30
$GPRMC,103859.382,A,5142.479,N,00451.758,E,007.8,319.7,120221,000.0,W*76
$GPGGA,103900.382,5142.481,N,00451.757,E,1,12,1.0,0.0,M,0.0,M,,*66
$GPGSA,A,3,01,02,03,04,05,06,07,08,09,10,11,12,1.0,1.0,1.0*30
$GPRMC,103900.382,A,5142.481,N,00451.757,E,007.8,319.7,120221,000.0,W*73
$GPGGA,103901.382,5142.483,N,00451.755,E,1,12,1.0,0.0,M,0.0,M,,*67
$GPGSA,A,3,01,02,03,04,05,06,07,08,09,10,11,12,1.0,1.0,1.0*30
$GPRMC,103901.382,A,5142.483,N,00451.755,E,007.8,319.7,120221,000.0,W*72
$GPGGA,103902.382,5142.485,N,00451.754,E,1,12,1.0,0.0,M,0.0,M,,*63
$GPGSA,A,3,01,02,03,04,05,06,07,08,09,10,11,12,1.0,1.0,1.0*30
$GPRMC,103902.382,A,5142.485,N,00451.754,E,007.8,319.7,120221,000.0,W*76
$GPGGA,103903.382,5142.487,N,00451.752,E,1,12,1.0,0.0,M,0.0,M,,*66
$GPGSA,A,3,01,02,03,04,05,06,07,08,09,10,11,12,1.0,1.0,1.0*30
$GPRMC,103903.382,A,5142.487,N,00451.752,E,007.8,319.7,120221,000.0,W*73
$GPGGA,103904.382,5142.489,N,00451.750,E,1,12,1.0,0.0,M,0.0,M,,*6D
$GPGSA,A,3,01,02,03,04,05,06,07,08,09,10,11,12,1.0,1.0,1.0*30
$GPRMC,103904.382,A,5142.489,N,00451.750,E,007.8,319.7,120221,000.0,W*78
$GPGGA,103905.382,5142.491,N,00451.749,E,1,12,1.0,0.0,M,0.0,M,,*6D
$GPGSA,A,3,01,02,03,04,05,06,07,08,09,10,11,12,1.0,1.0,1.0*30
$GPRMC,103905.382,A,5142.491,N,00451.749,E,007.8,319.7,120221,000.0,W*78
$GPGGA,103906.382,5142.492,N,00451.747,E,1,12,1.0,0.0,M,0.0,M,,*63
$GPGSA,A,3,01,02,03,04,05,06,07,08,09,10,11,12,1.0,1.0,1.0*30
$GPRMC,103906.382,A,5142.492,N,00451.747,E,007.8,319.7,120221,000.0,W*76
$GPGGA,103907.382,5142.494,N,00451.745,E,1,12,1.0,0.0,M,0.0,M,,*66
$GPGSA,A,3,01,02,03,04,05,06,07,08,09,10,11,12,1.0,1.0,1.0*30
$GPRMC,103907.382,A,5142.494,N,00451.745,E,007.8,319.7,120221,000.0,W*73
$GPGGA,103908.382,5142.496,N,00451.744,E,1,12,1.0,0.0,M,0.0,M,,*6A
$GPGSA,A,3,01,02,03,04,05,06,07,08,09,10,11,12,1.0,1.0,1.0*30
$GPRMC,103908.382,A,5142.496,N,00451.744,E,007.8,319.7,120221,000.0,W*7F
$GPGGA,103909.382,5142.498,N,00451.742,E,1,12,1.0,0.0,M,0.0,M,,*63
$GPGSA,A,3,01,02,03,04,05,06,07,08,09,10,11,12,1.0,1.0,1.0*30
$GPRMC,103909.382,A,5142.498,N,00451.742,E,007.8,319.7,120221,000.0,W*76
$GPGGA,103910.382,5142.500,N,00451.741,E,1,12,1.0,0.0,M,0.0,M,,*68
$GPGSA,A,3,01,02,03,04,05,06,07,08,09,10,11,12,1.0,1.0,1.0*30
$GPRMC,103910.382,A,5142.500,N,00451.741,E,007.8,319.7,120221,000.0,W*7D
$GPGGA,103911.382,5142.502,N,00451.739,E,1,12,1.0,0.0,M,0.0,M,,*64
$GPGSA,A,3,01,02,03,04,05,06,07,08,09,10,11,12,1.0,1.0,1.0*30
$GPRMC,103911.382,A,5142.502,N,00451.739,E,007.8,319.7,120221,000.0,W*71
$GPGGA,103912.382,5142.504,N,00451.737,E,1,12,1.0,0.0,M,0.0,M,,*6F
$GPGSA,A,3,01,02,03,04,05,06,07,08,09,10,11,12,1.0,1.0,1.0*30
$GPRMC,103912.382,A,5142.504,N,00451.737,E,007.8,319.7,120221,000.0,W*7A
$GPGGA,103913.382,5142.506,N,00451.736,E,1,12,1.0,0.0,M,0.0,M,,*6D
$GPGSA,A,3,01,02,03,04,05,06,07,08,09,10,11,12,1.0,1.0,1.0*30
$GPRMC,103913.382,A,5142.506,N,00451.736,E,007.8,319.7,120221,000.0,W*78
$GPGGA,103914.382,5142.508,N,00451.734,E,1,12,1.0,0.0,M,0.0,M,,*66
$GPGSA,A,3,01,02,03,04,05,06,07,08,09,10,11,12,1.0,1.0,1.0*30
$GPRMC,103914.382,A,5142.508,N,00451.734,E,007.8,319.7,120221,000.0,W*73
$GPGGA,103915.382,5142.510,N,00451.732,E,1,12,1.0,0.0,M,0.0,M,,*68
$GPGSA,A,3,01,02,03,04,05,06,07,08,09,10,11,12,1.0,1.0,1.0*30
$GPRMC,103915.382,A,5142.510,N,00451.732,E,007.8,319.7,120221,000.0,W*7D
$GPGGA,103916.382,5142.512,N,00451.731,E,1,12,1.0,0.0,M,0.0,M,,*6A
$GPGSA,A,3,01,02,03,04,05,06,07,08,09,10,11,12,1.0,1.0,1.0*30
$GPRMC,103916.382,A,5142.512,N,00451.731,E,007.8,319.7,120221,000.0,W*7F
$GPGGA,103917.382,5142.513,N,00451.729,E,1,12,1.0,0.0,M,0.0,M,,*63
$GPGSA,A,3,01,02,03,04,05,06,07,08,09,10,11,12,1.0,1.0,1.0*30
$GPRMC,103917.382,A,5142.513,N,00451.729,E,007.8,319.7,120221,000.0,W*76
$GPGGA,103918.382,5142.515,N,00451.728,E,1,12,1.0,0.0,M,0.0,M,,*6B
$GPGSA,A,3,01,02,03,04,05,06,07,08,09,10,11,12,1.0,1.0,1.0*30
$GPRMC,103918.382,A,5142.515,N,00451.728,E,007.8,319.7,120221,000.0,W*7E
$GPGGA,103919.382,5142.517,N,00451.726,E,1,12,1.0,0.0,M,0.0,M,,*66
$GPGSA,A,3,01,02,03,04,05,06,07,08,09,10,11,12,1.0,1.0,1.0*30
$GPRMC,103919.382,A,5142.517,N,00451.726,E,007.8,319.7,120221,000.0,W*73
$GPGGA,103920.382,5142.519,N,00451.724,E,1,12,1.0,0.0,M,0.0,M,,*60
$GPGSA,A,3,01,02,03,04,05,06,07,08,09,10,11,12,1.0,1.0,1.0*30
$GPRMC,103920.382,A,5142.519,N,00451.724,E,007.8,319.7,120221,000.0,W*75
$GPGGA,103921.382,5142.521,N,00451.723,E,1,12,1.0,0.0,M,0.0,M,,*6D
$GPGSA,A,3,01,02,03,04,05,06,07,08,09,10,11,12,1.0,1.0,1.0*30
$GPRMC,103921.382,A,5142.521,N,00451.723,E,007.8,319.7,120221,000.0,W*78
$GPGGA,103922.382,5142.523,N,00451.721,E,1,12,1.0,0.0,M,0.0,M,,*6E
$GPGSA,A,3,01,02,03,04,05,06,07,08,09,10,11,12,1.0,1.0,1.0*30
$GPRMC,103922.382,A,5142.523,N,00451.721,E,007.8,319.7,120221,000.0,W*7B
$GPGGA,103923.382,5142.525,N,00451.719,E,1,12,1.0,0.0,M,0.0,M,,*62
$GPGSA,A,3,01,02,03,04,05,06,07,08,09,10,11,12,1.0,1.0,1.0*30
$GPRMC,103923.382,A,5142.525,N,00451.719,E,007.8,319.7,120221,000.0,W*77
$GPGGA,103924.382,5142.527,N,00451.718,E,1,12,1.0,0.0,M,0.0,M,,*66
$GPGSA,A,3,01,02,03,04,05,06,07,08,09,10,11,12,1.0,1.0,1.0*30
$GPRMC,103924.382,A,5142.527,N,00451.718,E,007.8,319.7,120221,000.0,W*73
$GPGGA,103925.382,5142.529,N,00451.716,E,1,12,1.0,0.0,M,0.0,M,,*67
$GPGSA,A,3,01,02,03,04,05,06,07,08,09,10,11,12,1.0,1.0,1.0*30
$GPRMC,103925.382,A,5142.529,N,00451.716,E,007.8,319.7,120221,000.0,W*72
$GPGGA,103926.382,5142.531,N,00451.715,E,1,12,1.0,0.0,M,0.0,M,,*6E
$GPGSA,A,3,01,02,03,04,05,06,07,08,09,10,11,12,1.0,1.0,1.0*30
$GPRMC,103926.382,A,5142.531,N,00451.715,E,007.8,319.7,120221,000.0,W*7B
$GPGGA,103927.382,5142.533,N,00451.713,E,1,12,1.0,0.0,M,0.0,M,,*6B
$GPGSA,A,3,01,02,03,04,05,06,07,08,09,10,11,12,1.0,1.0,1.0*30
$GPRMC,103927.382,A,5142.533,N,00451.713,E,007.8,319.7,120221,000.0,W*7E
$GPGGA,103928.382,5142.534,N,00451.711,E,1,12,1.0,0.0,M,0.0,M,,*61
$GPGSA,A,3,01,02,03,04,05,06,07,08,09,10,11,12,1.0,1.0,1.0*30
$GPRMC,103928.382,A,5142.534,N,00451.711,E,007.8,319.7,120221,000.0,W*74
$GPGGA,103929.382,5142.536,N,00451.710,E,1,12,1.0,0.0,M,0.0,M,,*63
$GPGSA,A,3,01,02,03,04,05,06,07,08,09,10,11,12,1.0,1.0,1.0*30
$GPRMC,103929.382,A,5142.536,N,00451.710,E,007.8,319.7,120221,000.0,W*76
$GPGGA,103930.382,5142.538,N,00451.708,E,1,12,1.0,0.0,M,0.0,M,,*6C
$GPGSA,A,3,01,02,03,04,05,06,07,08,09,10,11,12,1.0,1.0,1.0*30
$GPRMC,103930.382,A,5142.538,N,00451.708,E,007.8,319.7,120221,000.0,W*79
$GPGGA,103931.382,5142.540,N,00451.706,E,1,12,1.0,0.0,M,0.0,M,,*6C
$GPGSA,A,3,01,02,03,04,05,06,07,08,09,10,11,12,1.0,1.0,1.0*30
$GPRMC,103931.382,A,5142.540,N,00451.706,E,007.8,319.7,120221,000.0,W*79
$GPGGA,103932.382,5142.542,N,00451.705,E,1,12,1.0,0.0,M,0.0,M,,*6E
$GPGSA,A,3,01,02,03,04,05,06,07,08,09,10,11,12,1.0,1.0,1.0*30
$GPRMC,103932.382,A,5142.542,N,00451.705,E,007.8,319.7,120221,000.0,W*7B
$GPGGA,103933.382,5142.544,N,00451.703,E,1,12,1.0,0.0,M,0.0,M,,*6F
$GPGSA,A,3,01,02,03,04,05,06,07,08,09,10,11,12,1.0,1.0,1.0*30
$GPRMC,103933.382,A,5142.544,N,00451.703,E,007.8,319.7,120221,000.0,W*7A
$GPGGA,103934.382,5142.546,N,00451.702,E,1,12,1.0,0.0,M,0.0,M,,*6B
$GPGSA,A,3,01,02,03,04,05,06,07,08,09,10,11,12,1.0,1.0,1.0*30
$GPRMC,103934.382,A,5142.546,N,00451.702,E,007.8,319.7,120221,000.0,W*7E
$GPGGA,103935.382,5142.548,N,00451.700,E,1,12,1.0,0.0,M,0.0,M,,*66
$GPGSA,A,3,01,02,03,04,05,06,07,08,09,10,11,12,1.0,1.0,1.0*30
$GPRMC,103935.382,A,5142.548,N,00451.700,E,007.8,319.7,120221,000.0,W*73
$GPGGA,103936.382,5142.550,N,00451.698,E,1,12,1.0,0.0,M,0.0,M,,*6C
$GPGSA,A,3,01,02,03,04,05,06,07,08,09,10,11,12,1.0,1.0,1.0*30
$GPRMC,103936.382,A,5142.550,N,00451.698,E,007.8,319.7,120221,000.0,W*79
$GPGGA,103937.382,5142.552,N,00451.697,E,1,12,1.0,0.0,M,0.0,M,,*60
$GPGSA,A,3,01,02,03,04,05,06,07,08,09,10,11,12,1.0,1.0,1.0*30
$GPRMC,103937.382,A,5142.552,N,00451.697,E,007.8,319.7,120221,000.0,W*75
$GPGGA,103938.382,5142.554,N,00451.695,E,1,12,1.0,0.0,M,0.0,M,,*6B
$GPGSA,A,3,01,02,03,04,05,06,07,08,09,10,11,12,1.0,1.0,1.0*30
$GPRMC,103938.382,A,5142.554,N,00451.695,E,007.8,319.7,120221,000.0,W*7E
$GPGGA,103939.382,5142.555,N,00451.694,E,1,12,1.0,0.0,M,0.0,M,,*6A
$GPGSA,A,3,01,02,03,04,05,06,07,08,09,10,11,12,1.0,1.0,1.0*30
$GPRMC,103939.382,A,5142.555,N,00451.694,E,007.8,319.7,120221,000.0,W*7F
$GPGGA,103940.382,5142.557,N,00451.692,E,1,12,1.0,0.0,M,0.0,M,,*60
$GPGSA,A,3,01,02,03,04,05,06,07,08,09,10,11,12,1.0,1.0,1.0*30
$GPRMC,103940.382,A,5142.557,N,00451.692,E,007.8,319.7,120221,000.0,W*75
$GPGGA,103941.382,5142.559,N,00451.690,E,1,12,1.0,0.0,M,0.0,M,,*6D
$GPGSA,A,3,01,02,03,04,05,06,07,08,09,10,11,12,1.0,1.0,1.0*30
$GPRMC,103941.382,A,5142.559,N,00451.690,E,007.8,319.7,120221,000.0,W*78
$GPGGA,103942.382,5142.561,N,00451.689,E,1,12,1.0,0.0,M,0.0,M,,*6D
$GPGSA,A,3,01,02,03,04,05,06,07,08,09,10,11,12,1.0,1.0,1.0*30
$GPRMC,103942.382,A,5142.561,N,00451.689,E,007.8,319.7,120221,000.0,W*78
$GPGGA,103943.382,5142.563,N,00451.687,E,1,12,1.0,0.0,M,0.0,M,,*60
$GPGSA,A,3,01,02,03,04,05,06,07,08,09,10,11,12,1.0,1.0,1.0*30
$GPRMC,103943.382,A,5142.563,N,00451.687,E,007.8,319.7,120221,000.0,W*75
$GPGGA,103944.382,5142.565,N,00451.685,E,1,12,1.0,0.0,M,0.0,M,,*63
$GPGSA,A,3,01,02,03,04,05,06,07,08,09,10,11,12,1.0,1.0,1.0*30
$GPRMC,103944.382,A,5142.565,N,00451.685,E,007.8,319.7,120221,000.0,W*76
$GPGGA,103945.382,5142.567,N,00451.684,E,1,12,1.0,0.0,M,0.0,M,,*61
$GPGSA,A,3,01,02,03,04,05,06,07,08,09,10,11,12,1.0,1.0,1.0*30
$GPRMC,103945.382,A,5142.567,N,00451.684,E,007.8,319.7,120221,000.0,W*74
$GPGGA,103946.382,5142.569,N,00451.682,E,1,12,1.0,0.0,M,0.0,M,,*6A
$GPGSA,A,3,01,02,03,04,05,06,07,08,09,10,11,12,1.0,1.0,1.0*30
$GPRMC,103946.382,A,5142.569,N,00451.682,E,007.8,319.7,120221,000.0,W*7F
$GPGGA,103947.382,5142.571,N,00451.681,E,1,12,1.0,0.0,M,0.0,M,,*61
$GPGSA,A,3,01,02,03,04,05,06,07,08,09,10,11,12,1.0,1.0,1.0*30
$GPRMC,103947.382,A,5142.571,N,00451.681,E,007.8,319.7,120221,000.0,W*74
$GPGGA,103948.382,5142.573,N,00451.679,E,1,12,1.0,0.0,M,0.0,M,,*6B
$GPGSA,A,3,01,02,03,04,05,06,07,08,09,10,11,12,1.0,1.0,1.0*30
$GPRMC,103948.382,A,5142.573,N,00451.679,E,007.8,319.7,120221,000.0,W*7E
$GPGGA,103949.382,5142.575,N,00451.677,E,1,12,1.0,0.0,M,0.0,M,,*62
$GPGSA,A,3,01,02,03,04,05,06,07,08,09,10,11,12,1.0,1.0,1.0*30
$GPRMC,103949.382,A,5142.575,N,00451.677,E,007.8,305.4,120221,000.0,W*79
$GPGGA,103950.382,5142.576,N,00451.675,E,1,12,1.0,0.0,M,0.0,M,,*6B
$GPGSA,A,3,01,02,03,04,05,06,07,08,09,10,11,12,1.0,1.0,1.0*30
$GPRMC,103950.382,A,5142.576,N,00451.675,E,007.8,305.4,120221,000.0,W*70
$GPGGA,103951.382,5142.578,N,00451.673,E,1,12,1.0,0.0,M,0.0,M,,*62
$GPGSA,A,3,01,02,03,04,05,06,07,08,09,10,11,12,1.0,1.0,1.0*30
$GPRMC,103951.382,A,5142.578,N,00451.673,E,007.8,305.4,120221,000.0,W*79
$GPGGA,103952.382,5142.579,N,00451.670,E,1,12,1.0,0.0,M,0.0,M,,*63
$GPGSA,A,3,01,02,03,04,05,06,07,08,09,10,11,12,1.0,1.0,1.0*30
$GPRMC,103952.382,A,5142.579,N,00451.670,E,007.8,305.4,120221,000.0,W*78
$GPGGA,103953.382,5142.581,N,00451.668,E,1,12,1.0,0.0,M,0.0,M,,*6C
$GPGSA,A,3,01,02,03,04,05,06,07,08,09,10,11,12,1.0,1.0,1.0*30
$GPRMC,103953.382,A,5142.581,N,00451.668,E,007.8,305.4,120221,000.0,W*77
$GPGGA,103954.382,5142.583,N,00451.666,E,1,12,1.0,0.0,M,0.0,M,,*67
$GPGSA,A,3,01,02,03,04,05,06,07,08,09,10,11,12,1.0,1.0,1.0*30
$GPRMC,103954.382,A,5142.583,N,00451.666,E,007.8,305.4,120221,000.0,W*7C
$GPGGA,103955.382,5142.584,N,00451.663,E,1,12,1.0,0.0,M,0.0,M,,*64
$GPGSA,A,3,01,02,03,04,05,06,07,08,09,10,11,12,1.0,1.0,1.0*30
$GPRMC,103955.382,A,5142.584,N,00451.663,E,007.8,305.4,120221,000.0,W*7F
$GPGGA,103956.382,5142.586,N,00451.661,E,1,12,1.0,0.0,M,0.0,M,,*67
$GPGSA,A,3,01,02,03,04,05,06,07,08,09,10,11,12,1.0,1.0,1.0*30
$GPRMC,103956.382,A,5142.586,N,00451.661,E,007.8,305.4,120221,000.0,W*7C
$GPGGA,103957.382,5142.588,N,00451.659,E,1,12,1.0,0.0,M,0.0,M,,*63
$GPGSA,A,3,01,02,03,04,05,06,07,08,09,10,11,12,1.0,1.0,1.0*30
$GPRMC,103957.382,A,5142.588,N,00451.659,E,007.8,305.4,120221,000.0,W*78
$GPGGA,103958.382,5142.589,N,00451.657,E,1,12,1.0,0.0,M,0.0,M,,*63
$GPGSA,A,3,01,02,03,04,05,06,07,08,09,10,11,12,1.0,1.0,1.0*30
$GPRMC,103958.382,A,5142.589,N,00451.657,E,007.8,305.4,120221,000.0,W*78
$GPGGA,103959.382,5142.591,N,00451.654,E,1,12,1.0,0.0,M,0.0,M,,*68
$GPGSA,A,3,01,02,03,04,05,06,07,08,09,10,11,12,1.0,1.0,1.0*30
$GPRMC,103959.382,A,5142.591,N,00451.654,E,007.8,305.4,120221,000.0,W*73
$GPGGA,104000.382,5142.592,N,00451.652,E,1,12,1.0,0.0,M,0.0,M,,*6F
$GPGSA,A,3,01,02,03,04,05,06,07,08,09,10,11,12,1.0,1.0,1.0*30
$GPRMC,104000.382,A,5142.592,N,00451.652,E,007.8,305.4,120221,000.0,W*74
$GPGGA,104001.382,5142.594,N,00451.650,E,1,12,1.0,0.0,M,0.0,M,,*6A
$GPGSA,A,3,01,02,03,04,05,06,07,08,09,10,11,12,1.0,1.0,1.0*30
$GPRMC,104001.382,A,5142.594,N,00451.650,E,007.8,305.4,120221,000.0,W*71
